Neighbourhood,Neighbourhood Latitude,Neighbourhood Longitude,Venue,Venue Latitude,Venue Longitude,Venue Category
Cantonment area,12.9937707,77.59778680000001,Ujwal Bar & Restaurant,12.99227960861634,77.59447349833962,Indian Restaurant
Cantonment area,12.9937707,77.59778680000001,Millers 46,12.991665958945687,77.59420704126842,Steakhouse
Cantonment area,12.9937707,77.59778680000001,Alliance Française,12.99123205419195,77.59672285626755,Concert Hall
Cantonment area,12.9937707,77.59778680000001,Jayamahal Palace Hotel,12.996839492188757,77.59716251118277,Indian Restaurant
Cantonment area,12.9937707,77.59778680000001,Watson's,12.994217603999449,77.59464460568408,Pub
Cantonment area,12.9937707,77.59778680000001,Jaymahal Palace Grounds,12.995299301757033,77.59693423002338,Music Venue
Cantonment area,12.9937707,77.59778680000001,Karnataka Badminton Association,12.989514454878785,77.5969601565791,Badminton Court
Cantonment area,12.9937707,77.59778680000001,Imperial Restaurant,12.991149886578006,77.59383746322487,Indian Restaurant
Cantonment area,12.9937707,77.59778680000001,Pasta Street - Cunningham Road,12.988385129794183,77.59389142600642,Italian Restaurant
Cantonment area,12.9937707,77.59778680000001,Ramana's,12.988734023699127,77.5940574616001,Indian Restaurant
Cantonment area,12.9937707,77.59778680000001,The French Loaf,12.999344947743225,77.6000393021337,Bakery
Cantonment area,12.9937707,77.59778680000001,Jayamahal Palace,12.996886575427947,77.59721670561181,Event Space
Cantonment area,12.9937707,77.59778680000001,Karnataka State Billiards Association,12.989906017226252,77.59659072410895,Pool Hall
Cantonment area,12.9937707,77.59778680000001,Cafe Coffee Day,12.995116541749379,77.60302845987117,Café
Cantonment area,12.9937707,77.59778680000001,The Zodiac,12.989588592716233,77.59505407068745,Indian Restaurant
Cantonment area,12.9937707,77.59778680000001,Hotel Chandrika,12.98965,77.59297,Vegetarian / Vegan Restaurant
Cantonment area,12.9937707,77.59778680000001,Cafe Coffee Day,12.989304961550355,77.59288289535611,Coffee Shop
Cantonment area,12.9937707,77.59778680000001,Casa Raviera,12.989019782378223,77.59342889070933,Italian Restaurant
Cantonment area,12.9937707,77.59778680000001,Pai Vihar,12.99317188523833,77.59588688029433,Indian Restaurant
Cantonment area,12.9937707,77.59778680000001,Subway,12.987839872381402,77.59456150081076,Sandwich Place
Cantonment area,12.9937707,77.59778680000001,Secret Garden Cafe,12.987379285480086,77.59592053563657,Salad Place
Cantonment area,12.9937707,77.59778680000001,Cantonment Station Chai Guy,12.993795132048405,77.59824360820399,Tea Room
Cantonment area,12.9937707,77.59778680000001,Featherlite Living,12.99331599698295,77.59592700570208,Furniture / Home Store
Cantonment area,12.9937707,77.59778680000001,Domino's Pizza,12.988320482792965,77.59400417472338,Pizza Place
Cantonment area,12.9937707,77.59778680000001,Chungs,12.989102438265864,77.59402695478403,Chinese Restaurant
Cantonment area,12.9937707,77.59778680000001,Nilgiris,12.99241017914555,77.5930899422271,Department Store
Cantonment area,12.9937707,77.59778680000001,Fortune Select JP Cosmos,12.989569022690397,77.59504111868993,Hotel
Cantonment area,12.9937707,77.59778680000001,Sri Vinayaka Juice & Chats,12.992459297180176,77.59272766113281,Juice Bar
Cantonment area,12.9937707,77.59778680000001,KFC,12.988550451776677,77.59386808727444,Fast Food Restaurant
Cantonment area,12.9937707,77.59778680000001,Bangalore Bistro,12.988101433291202,77.59411957508252,Mediterranean Restaurant
Cantonment area,12.9937707,77.59778680000001,Life,12.999090694896536,77.60044979694634,Gym / Fitness Center
Domlur,12.9609857,77.6387316,Lavonne,12.963908917512304,77.63857909555004,Café
Domlur,12.9609857,77.6387316,Barbeque Nation,12.96268432799919,77.64159912496677,BBQ Joint
Domlur,12.9609857,77.6387316,Smoke House Deli,12.965584187974008,77.64149811290692,Deli / Bodega
Domlur,12.9609857,77.6387316,League of Extraordinary Gamers,12.967098531603707,77.63691851929147,Gaming Cafe
Domlur,12.9609857,77.6387316,Drops Total Spirits,12.964526940755547,77.64163609332793,Liquor Store
Domlur,12.9609857,77.6387316,Anand Sweets,12.960165704974667,77.64516797876391,Indian Restaurant
Domlur,12.9609857,77.6387316,Starbucks,12.965648550083586,77.64171789183723,Coffee Shop
Domlur,12.9609857,77.6387316,Domino's Pizza,12.961,77.639,Pizza Place
Domlur,12.9609857,77.6387316,Puma Social Club,12.967254184484323,77.64121209338596,Nightclub
Domlur,12.9609857,77.6387316,Harry's Singapore,12.964480895955553,77.6416910954984,Sports Bar
Domlur,12.9609857,77.6387316,Little Italy,12.96639726249987,77.64164576981047,Italian Restaurant
Domlur,12.9609857,77.6387316,Mainland China,12.962457669794661,77.64172707439545,Chinese Restaurant
Domlur,12.9609857,77.6387316,Tipsy Bull,12.964824110364718,77.64178306379425,Pub
Domlur,12.9609857,77.6387316,Cafe 42,12.963698354237229,77.6420391954426,Café
Domlur,12.9609857,77.6387316,Bob's Bar,12.967081570328242,77.64139470111513,Karnataka Restaurant
Domlur,12.9609857,77.6387316,Sree Nandhini Palace,12.961989653930361,77.64181260219313,Indian Restaurant
Domlur,12.9609857,77.6387316,Geoffrey's,12.957250976074215,77.64415895743561,Pub
Domlur,12.9609857,77.6387316,flying spaghetti monster,12.967053,77.64157,Italian Restaurant
Domlur,12.9609857,77.6387316,Spaghetti Kitchen,12.96453930395614,77.64165710460685,Italian Restaurant
Domlur,12.9609857,77.6387316,Srinidhi Sagar,12.95934816148329,77.63838706241823,Indian Restaurant
Domlur,12.9609857,77.6387316,Rajdhani,12.963833882354622,77.641642801897,Rajasthani Restaurant
Domlur,12.9609857,77.6387316,Barista,12.966273474482174,77.64143228530884,Café
Domlur,12.9609857,77.6387316,Subway,12.963811997701667,77.64066031212336,Sandwich Place
Domlur,12.9609857,77.6387316,Hotel Royal Orchid,12.957208484767675,77.64422244043912,Hotel
Domlur,12.9609857,77.6387316,Lime Light,12.957065273348734,77.64409831195849,Coffee Shop
Domlur,12.9609857,77.6387316,Vietnamese Kitchen,12.966451631457387,77.63733788165581,Vietnamese Restaurant
Domlur,12.9609857,77.6387316,The Paramount Hotel,12.955928268463168,77.64158130000955,Indian Restaurant
Domlur,12.9609857,77.6387316,Raenss Cafe,12.96587686311702,77.64127674983253,Café
Domlur,12.9609857,77.6387316,Sethji's,12.964210978293035,77.64388271352537,Diner
Domlur,12.9609857,77.6387316,Java Diamond District,12.957960745342602,77.64436394227398,Food
Domlur,12.9609857,77.6387316,Troika,12.96513995350749,77.64174100622184,Lounge
Domlur,12.9609857,77.6387316,Namdhari's Fresh,12.966155476607463,77.6375836931685,Food & Drink Shop
Domlur,12.9609857,77.6387316,Nandhini Paradise,12.965095323722327,77.6385246453569,Indian Restaurant
Domlur,12.9609857,77.6387316,Paratha House,12.95989408881786,77.64458969098906,Indian Restaurant
Domlur,12.9609857,77.6387316,Pizza Hut,12.955856146079977,77.64132457960159,Pizza Place
Domlur,12.9609857,77.6387316,Muse Bar & Kitchen,12.965077421412994,77.64142777320598,Restaurant
Domlur,12.9609857,77.6387316,Chokidhani,12.955890390812437,77.64134946481546,Indian Restaurant
Domlur,12.9609857,77.6387316,Ginseng,12.957228307899607,77.64369065233625,Chinese Restaurant
Domlur,12.9609857,77.6387316,FAASO'S,12.9602415946053,77.64529278373925,Burrito Place
Domlur,12.9609857,77.6387316,Clay Pot,12.960031596718116,77.64473140239716,Indian Restaurant
Domlur,12.9609857,77.6387316,Ramji Chaiwale,12.960142396997593,77.64487940524187,Coffee Shop
Domlur,12.9609857,77.6387316,Sree Krishna Sagar,12.954938389832282,77.64116601931988,Indian Restaurant
Domlur,12.9609857,77.6387316,INOX Lido Mall,12.966868084644243,77.64091876769139,Multiplex
Domlur,12.9609857,77.6387316,Food Corner,12.965165212807795,77.64413595199585,Convenience Store
Indiranagar,12.9783692,77.6408356,Toit Brewpub,12.979367419317535,77.64070245409556,Brewery
Indiranagar,12.9783692,77.6408356,Fab India - Indiranagar,12.97816520071199,77.64160653370463,Boutique
Indiranagar,12.9783692,77.6408356,Glen's Bakehouse,12.979147820281199,77.64063514790993,Bakery
Indiranagar,12.9783692,77.6408356,Coorg - The Restaurant,12.978958396738818,77.64173497282401,Karnataka Restaurant
Indiranagar,12.9783692,77.6408356,Café Max,12.978407737568805,77.64427149288929,German Restaurant
Indiranagar,12.9783692,77.6408356,The Tribe Cult Fitness,12.980737856949036,77.64051520771689,Gym / Fitness Center
Indiranagar,12.9783692,77.6408356,Spoonful of Sugar,12.979302980055708,77.64368592655504,Dessert Shop
Indiranagar,12.9783692,77.6408356,Yogisthan,12.981036630519014,77.63834821382211,Café
Indiranagar,12.9783692,77.6408356,3 dots and a dash,12.980653799192126,77.64083586193344,Cocktail Bar
Indiranagar,12.9783692,77.6408356,Milano,12.979096175904914,77.64406308459338,Ice Cream Shop
Indiranagar,12.9783692,77.6408356,Onesta,12.978654093078921,77.64352254009174,Pizza Place
Indiranagar,12.9783692,77.6408356,Chinita Real Mexican Food,12.980976546862369,77.63720542741842,Mexican Restaurant
Indiranagar,12.9783692,77.6408356,Third Wave Coffee Roasters Indiranagar,12.97855365376682,77.64532420670389,Café
Indiranagar,12.9783692,77.6408356,MTR 1924,12.980584436512457,77.64067149104072,Breakfast Spot
Indiranagar,12.9783692,77.6408356,"Stones Pub, Indiranagar",12.98030524538682,77.64078497507315,Pub
Indiranagar,12.9783692,77.6408356,Chumbak,12.978310348200587,77.64218386838145,Outlet Store
Indiranagar,12.9783692,77.6408356,Terra,12.980417464598965,77.63716110610339,Café
Indiranagar,12.9783692,77.6408356,Stoner,12.976362702040921,77.64118809071226,Dessert Shop
Indiranagar,12.9783692,77.6408356,Meghana Foods,12.978259479034643,77.63784974571173,Andhra Restaurant
Indiranagar,12.9783692,77.6408356,Doff Pub,12.977381959533586,77.64081675463058,Pub
Indiranagar,12.9783692,77.6408356,Take 5,12.975553933859773,77.64118445763896,Pub
Indiranagar,12.9783692,77.6408356,Vero Moda,12.972807530900655,77.64122460428416,Boutique
Indiranagar,12.9783692,77.6408356,Wanley,12.978987671463262,77.6425503738952,Chinese Restaurant
Indiranagar,12.9783692,77.6408356,eclipse lounge,12.973694984076802,77.64400073279776,Lounge
Indiranagar,12.9783692,77.6408356,New Frosty's,12.980580037620213,77.64615365054266,Butcher
Indiranagar,12.9783692,77.6408356,Esplanade Calcutta Cuisine,12.97877939551506,77.63673500999263,Bengali Restaurant
Indiranagar,12.9783692,77.6408356,Creme & Crust,12.974955917759535,77.64108735574453,Café
Indiranagar,12.9783692,77.6408356,Kund Restaurant,12.980013627353832,77.64067145984167,Indian Restaurant
Indiranagar,12.9783692,77.6408356,Mast Kalandar,12.978450839183704,77.64398762339621,Indian Restaurant
Indiranagar,12.9783692,77.6408356,Imperial Restaurant,12.975519642815073,77.63618619009051,Indian Restaurant
Indiranagar,12.9783692,77.6408356,Lazer Castle,12.97519265797958,77.6468948193028,Arcade
Indiranagar,12.9783692,77.6408356,Hotel Shalimar Bar and Restaurant,12.978253448591232,77.63736833055371,Bar
Indiranagar,12.9783692,77.6408356,Viceroy's Sarathi,12.979058941744116,77.64241432262456,Bar
Indiranagar,12.9783692,77.6408356,Sri Udupi Park,12.973616953966802,77.64110378070436,Udupi Restaurant
Indiranagar,12.9783692,77.6408356,Nagarjuna,12.977510782422614,77.63655622217226,Andhra Restaurant
Indiranagar,12.9783692,77.6408356,Sapna Book House,12.979130482335183,77.64661991909207,Bookstore
Indiranagar,12.9783692,77.6408356,Sue's Kitchen,12.979049606624473,77.64226119483526,Caribbean Restaurant
Indiranagar,12.9783692,77.6408356,Bangalore Mandarin,12.977584014966176,77.63658361681532,Chinese Restaurant
Indiranagar,12.9783692,77.6408356,Byblos Lebanese Cuisine,12.980872643228164,77.64078476365385,Middle Eastern Restaurant
Indiranagar,12.9783692,77.6408356,Blistering Barnacles,12.975468847802725,77.64124762205996,Pub
Indiranagar,12.9783692,77.6408356,Punjabi Rasoi,12.982271564200772,77.63879975104935,Punjabi Restaurant
Indiranagar,12.9783692,77.6408356,Godrej Nature's Basket,12.978366254030572,77.64311528919905,Gourmet Shop
Indiranagar,12.9783692,77.6408356,M.K. Retail,12.978260724348612,77.63480492778383,Department Store
Indiranagar,12.9783692,77.6408356,380 Down,12.975181956990173,77.64685713825222,Bar
Indiranagar,12.9783692,77.6408356,M.K.Retail,12.978494846456329,77.64461556113748,Department Store
Indiranagar,12.9783692,77.6408356,Kim Lee,12.973632563930007,77.6359129577451,Chinese Restaurant
Indiranagar,12.9783692,77.6408356,Breadworks,12.97381455352682,77.6419867358635,Bakery
Indiranagar,12.9783692,77.6408356,Bow Barracks,12.982350153372838,77.63935810287856,Indian Restaurant
Indiranagar,12.9783692,77.6408356,The Beer Café,12.980764358678751,77.6407269398387,Bar
Indiranagar,12.9783692,77.6408356,The Only Place,12.973845184145466,77.64455249123337,Steakhouse
Indiranagar,12.9783692,77.6408356,Cake Walk,12.97910982224851,77.64491255280505,Dessert Shop
Indiranagar,12.9783692,77.6408356,The People's Art Cafe,12.973840262650604,77.64218288702607,Café
Indiranagar,12.9783692,77.6408356,Mama Mia Gelato,12.973924511642698,77.64319346979285,Ice Cream Shop
Indiranagar,12.9783692,77.6408356,Annapoorani,12.974672134695787,77.63603075896815,Indian Restaurant
Indiranagar,12.9783692,77.6408356,Au Bon Pain,12.978468873331321,77.64514300849872,Café
Indiranagar,12.9783692,77.6408356,Istanbul Doner,12.982120357152334,77.63958225702848,Turkish Restaurant
Indiranagar,12.9783692,77.6408356,The Warehouse,12.975192077769645,77.64686880579796,Lounge
Indiranagar,12.9783692,77.6408356,Laa Jawaab,12.978386810453847,77.64267983946718,Indian Restaurant
Indiranagar,12.9783692,77.6408356,Kobe Sizzlers,12.978367956380659,77.64264866988913,Restaurant
Indiranagar,12.9783692,77.6408356,Vasudev Adiga's,12.98121776875185,77.63708119567669,Indian Restaurant
Indiranagar,12.9783692,77.6408356,Rasa  India,12.978439,77.642957,Indian Restaurant
Indiranagar,12.9783692,77.6408356,Nokia Concept Store,12.978355158197854,77.6427142603734,Mobile Phone Shop
Indiranagar,12.9783692,77.6408356,Cafe Coffee Day (CCD)Lounge,12.978460413587843,77.64274516041388,Café
Indiranagar,12.9783692,77.6408356,Truffles,12.980750296141279,77.64067573387223,Burger Joint
Indiranagar,12.9783692,77.6408356,Cafe Beanstalk,12.981303965605456,77.64071418893705,Café
Indiranagar,12.9783692,77.6408356,The Beer Joint,12.981301125964004,77.63663939432324,Pub
Indiranagar,12.9783692,77.6408356,kartik's Mithai Shoppe,12.98230977520401,77.63904829238979,Bakery
Indiranagar,12.9783692,77.6408356,Punjabi Food Corner,12.982337777968876,77.63935342990361,Indian Restaurant
Indiranagar,12.9783692,77.6408356,Airtel Relationship Centre,12.982246837154374,77.63954276321206,Electronics Store
Indiranagar,12.9783692,77.6408356,Roll Khazana,12.981919868654645,77.63847998398474,Fast Food Restaurant
Indiranagar,12.9783692,77.6408356,Curry Meen,12.981354901500612,77.63728854057882,Asian Restaurant
Indiranagar,12.9783692,77.6408356,Punjabi Dhaba,12.981663163976187,77.63709783554077,Indian Restaurant
Indiranagar,12.9783692,77.6408356,Maia Beacon Residences Hotel Bangalore,12.979884814733921,77.64640356509098,Hotel
Indiranagar,12.9783692,77.6408356,Shreedevi,12.98141257672265,77.64608702412161,Indian Restaurant
Indiranagar,12.9783692,77.6408356,Spice Curry,12.981177640523706,77.64613736311134,Indian Restaurant
Jeevanbheemanagar,12.964163,77.658076,Hyderabad Biryaani House,12.959209291766507,77.65649019333365,Indian Restaurant
Jeevanbheemanagar,12.964163,77.658076,New Punjabi Hotel,12.95929598977082,77.65554308650674,Indian Restaurant
Jeevanbheemanagar,12.964163,77.658076,Delicacy,12.96789714445816,77.65297959446143,Chinese Restaurant
Jeevanbheemanagar,12.964163,77.658076,Domino's Pizza,12.96,77.656,Pizza Place
Jeevanbheemanagar,12.964163,77.658076,Shri Udupi Park,12.959302945535505,77.65607553064976,Restaurant
Jeevanbheemanagar,12.964163,77.658076,McDonald's,12.958693284292194,77.65674233436584,Fast Food Restaurant
Jeevanbheemanagar,12.964163,77.658076,The Biryanis,12.96778592878806,77.6543703561135,Indian Restaurant
Jeevanbheemanagar,12.964163,77.658076,Cafe Coffee Day,12.967722483002703,77.65435472554519,Café
Jeevanbheemanagar,12.964163,77.658076,McDonald's,12.95928679303521,77.65686315831108,Fast Food Restaurant
Jeevanbheemanagar,12.964163,77.658076,Sagar Foods bakery,12.967252,77.657902,Bakery
Jeevanbheemanagar,12.964163,77.658076,KFC,12.959232583061564,77.65692743951291,Fast Food Restaurant
Jeevanbheemanagar,12.964163,77.658076,Malabar Hotel,12.967760855349725,77.65439877722774,Indian Restaurant
Jeevanbheemanagar,12.964163,77.658076,Simhapuri Mess,12.96064655248418,77.65722257700817,Indian Restaurant
Jeevanbheemanagar,12.964163,77.658076,Bekal,12.967764195080635,77.65418396385115,Kerala Restaurant
Jeevanbheemanagar,12.964163,77.658076,HAL bus stand,12.959262529951918,77.65553357886255,Bus Station
Jeevanbheemanagar,12.964163,77.658076,Cafe Coffee Day,12.959231825701037,77.65474834021752,Coffee Shop
Jeevanbheemanagar,12.964163,77.658076,Fitness Square,12.958954436259347,77.66005514709039,Gym
Malleswaram,13.0055113,77.5692358,Veena Stores,13.00564208436113,77.56920735021443,South Indian Restaurant
Malleswaram,13.0055113,77.5692358,Asha Sweet Center,12.999370572624446,77.57132224515472,Snack Place
Malleswaram,13.0055113,77.5692358,Sai Ram Chats,13.006615096949773,77.5641582535936,Indian Restaurant
Malleswaram,13.0055113,77.5692358,Naturals Ice Cream,13.006587097158341,77.56435396687141,Ice Cream Shop
Malleswaram,13.0055113,77.5692358,Hotel Janatha,12.999216933608858,77.57121001217656,Indian Restaurant
Malleswaram,13.0055113,77.5692358,Sai Shakti Veg,12.99922045228025,77.56798496638436,Vegetarian / Vegan Restaurant
Malleswaram,13.0055113,77.5692358,"Cafe Coffee Day, Sampige Road",13.004053,77.571103,Coffee Shop
Malleswaram,13.0055113,77.5692358,Iyer Mess,12.998894906321036,77.57012501323105,Indian Restaurant
Malleswaram,13.0055113,77.5692358,Mad Over Donuts,13.002717893536188,77.57006406784058,Donut Shop
Malleswaram,13.0055113,77.5692358,Sai Ram Chaats,13.005391156947429,77.57334850981687,Fast Food Restaurant
Malleswaram,13.0055113,77.5692358,Cafe Coffee Day,13.008498035721395,77.57172348534675,Café
Malleswaram,13.0055113,77.5692358,Bun World,13.00751091833173,77.56373752423768,Bakery
Malleswaram,13.0055113,77.5692358,Polar Bear,13.004459641223235,77.57080631784352,Ice Cream Shop
Malleswaram,13.0055113,77.5692358,1947,13.005496262134418,77.56905434961033,Vegetarian / Vegan Restaurant
Malleswaram,13.0055113,77.5692358,chungs chinese,13.006520180215697,77.56927244203821,Chinese Restaurant
Malleswaram,13.0055113,77.5692358,Vasudev Adiga's Sampige,13.005477332486159,77.5712143560557,Indian Restaurant
Malleswaram,13.0055113,77.5692358,Baskin-Robbins,13.007388036693555,77.563982147099,Ice Cream Shop
Malleswaram,13.0055113,77.5692358,Amrith Ice creams,13.001859955880118,77.56734047512491,Ice Cream Shop
Malleswaram,13.0055113,77.5692358,Malleswaram Market,13.003273257632813,77.57119657714844,Flea Market
Malleswaram,13.0055113,77.5692358,ccd malleswaram,13.00406,77.57110213149593,Coffee Shop
Malleswaram,13.0055113,77.5692358,Chowdiah Memorial Hall,13.006501863554792,77.57561257024477,Performing Arts Venue
Malleswaram,13.0055113,77.5692358,Ammas Pastries,13.008176585194992,77.57118945452443,Dessert Shop
Malleswaram,13.0055113,77.5692358,Food Camp,13.000975247148876,77.572331351764,Indian Restaurant
Malleswaram,13.0055113,77.5692358,Maiyas,13.001957972257731,77.57064991381596,Vegetarian / Vegan Restaurant
Malleswaram,13.0055113,77.5692358,The Donut Baker,13.004452187805247,77.5711856384457,American Restaurant
Malleswaram,13.0055113,77.5692358,Brahmins' Thatte Idli,13.008074520733619,77.56368772891088,South Indian Restaurant
Malleswaram,13.0055113,77.5692358,Oven fresh,13.000624656677246,77.5654067993164,Bakery
Malleswaram,13.0055113,77.5692358,Ganesh Stores,12.999127507209778,77.56727457046509,Department Store
Pete area,12.9737096,77.5759122,Hotel Fishland,12.975568890049333,77.57859164076424,Seafood Restaurant
Pete area,12.9737096,77.5759122,Udupi Sri Krishna Bhavan,12.97156265323936,77.57415757477479,Indian Restaurant
Pete area,12.9737096,77.5759122,SGS Donne Biriyani,12.970324618320749,77.57264765624994,Indian Restaurant
Pete area,12.9737096,77.5759122,Sapna Book House,12.976355227501642,77.57846142706263,Bookstore
Pete area,12.9737096,77.5759122,Sangam Sweets,12.976923576115686,77.57789057442537,Dessert Shop
Pete area,12.9737096,77.5759122,Hotel Empire,12.979648013741157,77.57497051453586,Indian Restaurant
Pete area,12.9737096,77.5759122,Hotel Annapoorna,12.979087566298864,77.57862372776252,Indian Restaurant
Pete area,12.9737096,77.5759122,Adigas Hotel,12.973553782214829,77.57916099748974,Restaurant
Pete area,12.9737096,77.5759122,Sukh Sagar GandhiNagar,12.976707716721643,77.57782914668401,Indian Restaurant
Pete area,12.9737096,77.5759122,Vasudev Adigas,12.973707466751653,77.57925702237114,Indian Restaurant
Pete area,12.9737096,77.5759122,Chicken County,12.97760791036761,77.57714342463389,Indian Restaurant
Pete area,12.9737096,77.5759122,National Market,12.976377523937252,77.57749955731605,Flea Market
Pete area,12.9737096,77.5759122,Mavalli Tiffin Rooms (MTR 1924),12.979072175993936,77.5771394336105,Indian Restaurant
Pete area,12.9737096,77.5759122,Kamat Yatrinivas,12.975985,77.578125,Indian Restaurant
Pete area,12.9737096,77.5759122,Swathi Deluxe Andhra Style Restaurant,12.976349914824251,77.5720867422601,Indian Restaurant
Pete area,12.9737096,77.5759122,Kempegowda Metro Station,12.97613377217214,77.57148227589698,Metro Station
Pete area,12.9737096,77.5759122,Majestic / Kempegowda Bus Stand,12.97750218698569,77.57227420806885,Bus Station
Pete area,12.9737096,77.5759122,The Signature Inn,12.97311542197954,77.57039646710255,Hotel
Pete area,12.9737096,77.5759122,Hotel Shreeragavendra,12.977855036355214,77.57223397493362,Indian Restaurant
Pete area,12.9737096,77.5759122,UG Regal,12.973232955313561,77.57020057265463,Hotel
Pete area,12.9737096,77.5759122,hotel golden residency,12.978168107407408,77.57961431680322,Hotel
Pete area,12.9737096,77.5759122,The Bell Hotel,12.976803462385556,77.57071549447808,Hotel
Pete area,12.9737096,77.5759122,Hotel Kanishka,12.97816101456345,77.57997249374132,Indian Restaurant
Pete area,12.9737096,77.5759122,Cotton Pet,12.971384908892128,77.57023415458406,Rest Area
Pete area,12.9737096,77.5759122,Mantri mall Coffeeday,12.978003279296122,77.57150466359761,Café
Pete area,12.9737096,77.5759122,Foto Circle,12.980220782007168,77.57473093366728,Electronics Store
Pete area,12.9737096,77.5759122,Hare Krishna Restaurant,12.977527407140618,77.57022855759651,Indian Restaurant
Sadashivanagar,13.0068182,77.5812849,Affinity Gym,13.009358335496437,77.57967813676564,Gym
Sadashivanagar,13.0068182,77.5812849,Starbucks,13.009074568908774,77.58042318321591,Coffee Shop
Sadashivanagar,13.0068182,77.5812849,Pulimunchi,13.006697755019108,77.57896819629818,Seafood Restaurant
Sadashivanagar,13.0068182,77.5812849,Godrej Nature's Basket,13.00546570910896,77.58071527104575,Department Store
Sadashivanagar,13.0068182,77.5812849,Pebble,13.005044881730056,77.58463910235197,Nightclub
Sadashivanagar,13.0068182,77.5812849,Angadi Galleria,13.005689433815105,77.58002845878543,Women's Store
Sadashivanagar,13.0068182,77.5812849,Cafe Coffee Day,13.00518093167234,77.58090046759425,Coffee Shop
Sadashivanagar,13.0068182,77.5812849,Sadashivnagar Bhashyam Circle,13.005981460666309,77.57868529008377,Plaza
Sadashivanagar,13.0068182,77.5812849,Chung Wah,13.003701281404263,77.57866302814473,Chinese Restaurant
Sadashivanagar,13.0068182,77.5812849,Starbucks,13.009077740805632,77.5803979967678,Coffee Shop
Sadashivanagar,13.0068182,77.5812849,Baskin-Robbins,13.003655106846175,77.58347129210604,Ice Cream Shop
Sadashivanagar,13.0068182,77.5812849,Polar Bear,13.007617855396752,77.57792534359076,Ice Cream Shop
Sadashivanagar,13.0068182,77.5812849,Café Coffee Day - Lounge,13.007536451664945,77.57955280498518,Café
Sadashivanagar,13.0068182,77.5812849,Namdhari's Fresh,13.00341636761803,77.57842728791519,Department Store
Sadashivanagar,13.0068182,77.5812849,Sattvam,13.005504044819334,77.5807056336056,Indian Restaurant
Sadashivanagar,13.0068182,77.5812849,Aubree,13.004373552479356,77.57844463733994,Dessert Shop
Sadashivanagar,13.0068182,77.5812849,Palace Grounds,13.010286287428332,77.58660793304443,Field
Sadashivanagar,13.0068182,77.5812849,Barista Lavazza,13.009091222572065,77.58055819196593,Café
Sadashivanagar,13.0068182,77.5812849,Chowdiah Memorial Hall,13.006501863554792,77.57561257024477,Performing Arts Venue
Sadashivanagar,13.0068182,77.5812849,Good Food Store,13.003748362327105,77.57829912613018,Gourmet Shop
Sadashivanagar,13.0068182,77.5812849,Swadhista Hotel,13.005548531412263,77.57880867093978,Indian Restaurant
Seshadripuram,12.9889055,77.574044,Corner House,12.98830366372137,77.57712961194349,Ice Cream Shop
Seshadripuram,12.9889055,77.574044,Lakshmi Juice Centre,12.990533308557653,77.57456962099303,Juice Bar
Seshadripuram,12.9889055,77.574044,Umesh Dosa Point,12.988905011478305,77.57773600534023,Karnataka Restaurant
Seshadripuram,12.9889055,77.574044,Swensen's,12.99162264662317,77.57069395613192,Ice Cream Shop
Seshadripuram,12.9889055,77.574044,New Krishna Bhavan,12.99289778546701,77.57148884016746,Indian Restaurant
Seshadripuram,12.9889055,77.574044,Mantri Square,12.991575965814693,77.57108539767026,Shopping Mall
Seshadripuram,12.9889055,77.574044,Krispy Kreme Doughnuts,12.991562442110716,77.57110303908739,Donut Shop
Seshadripuram,12.9889055,77.574044,Kalmane Koffees,12.991542298881146,77.57117511887564,Coffee Shop
Seshadripuram,12.9889055,77.574044,Mad Over Donuts,12.991577102584209,77.57099777083349,Donut Shop
Seshadripuram,12.9889055,77.574044,INOX,12.991698836501671,77.57056913374885,Multiplex
Seshadripuram,12.9889055,77.574044,Marks & Spencer,12.991539707403318,77.57122995517241,Clothing Store
Seshadripuram,12.9889055,77.574044,Chowmein,12.989124373446728,77.57834713433805,Chinese Restaurant
Seshadripuram,12.9889055,77.574044,Mavalli Tiffin Room (MTR),12.993694874301262,77.57142459327149,Karnataka Restaurant
Seshadripuram,12.9889055,77.574044,Rajdhani,12.991699115184144,77.57052926806347,Rajasthani Restaurant
Seshadripuram,12.9889055,77.574044,Chetty's Corner,12.992465446218658,77.57841549534524,Food & Drink Shop
Seshadripuram,12.9889055,77.574044,Kabab Studio,12.985324856309296,77.57946451639165,Indian Restaurant
Seshadripuram,12.9889055,77.574044,Subway,12.991628170727196,77.57078172514093,Sandwich Place
Seshadripuram,12.9889055,77.574044,Gelato Italiano,12.99156980534757,77.5711335169108,Dessert Shop
Seshadripuram,12.9889055,77.574044,Sanman Restaurant,12.986500843041476,77.5745202463872,Indian Restaurant
Seshadripuram,12.9889055,77.574044,Janardhan Hotel,12.985753649668615,77.57914631666371,Indian Restaurant
Seshadripuram,12.9889055,77.574044,Amoeba,12.99157021165877,77.57102590162296,Arcade
Seshadripuram,12.9889055,77.574044,Al Bek,12.994258685516549,77.57149064755079,Restaurant
Seshadripuram,12.9889055,77.574044,KFC,12.991547344565374,77.57116558783362,Fast Food Restaurant
Seshadripuram,12.9889055,77.574044,Starbucks,12.991589767359908,77.57113148619194,Coffee Shop
Seshadripuram,12.9889055,77.574044,Shoppers Stop,12.99156395548015,77.57112247292112,Miscellaneous Shop
Seshadripuram,12.9889055,77.574044,Bliss Chocolate Lounge,12.99167290948131,77.5705081785261,Bakery
Seshadripuram,12.9889055,77.574044,Richie Rich,12.986810188470278,77.57993552448508,Fast Food Restaurant
Seshadripuram,12.9889055,77.574044,Lifestyle,12.991519426626484,77.57112292300272,Clothing Store
Seshadripuram,12.9889055,77.574044,Baskin-Robbins,12.991681,77.570593,Ice Cream Shop
Seshadripuram,12.9889055,77.574044,New Samrat Restaurant,12.989394635631218,77.57276446433143,Indian Restaurant
Seshadripuram,12.9889055,77.574044,Cafe Coffee Day,12.988330631269658,77.57709458941461,Café
Seshadripuram,12.9889055,77.574044,Pizza Hut @ Mantri Mall,12.991581241266264,77.57097063379967,Pizza Place
Seshadripuram,12.9889055,77.574044,The Great Kabab Factory,12.991584019480761,77.57102607640877,Indian Restaurant
Seshadripuram,12.9889055,77.574044,Hotel Swathi,12.989055449185772,77.57206614566185,Indian Restaurant
Seshadripuram,12.9889055,77.574044,Gullu's Chat,12.99243043883085,77.57836433849415,Chaat Place
Seshadripuram,12.9889055,77.574044,Rasa,12.994212552593925,77.57131082062315,Bar
Seshadripuram,12.9889055,77.574044,Reliance Trends,12.991621746680627,77.57125187197221,Clothing Store
Seshadripuram,12.9889055,77.574044,Reliance Digital,12.991581089619693,77.57100429737585,Electronics Store
Seshadripuram,12.9889055,77.574044,Cafe Coffee Day,12.986128287719138,77.5770958531842,Arcade
Seshadripuram,12.9889055,77.574044,Baskin-Robbins,12.988274307384168,77.57712943306791,Ice Cream Shop
Seshadripuram,12.9889055,77.574044,Sana-di-ge,12.985438169736728,77.5796049178182,Seafood Restaurant
Seshadripuram,12.9889055,77.574044,Food Court,12.991646212171805,77.57061710566572,Food Court
Seshadripuram,12.9889055,77.574044,Cafe Coffee Day,12.993100264374014,77.57017135620117,Café
Seshadripuram,12.9889055,77.574044,Pantaloons,12.991542170356308,77.57103684159512,Clothing Store
Seshadripuram,12.9889055,77.574044,Spar Hypermarket,12.991498003431461,77.57120209004938,Department Store
Seshadripuram,12.9889055,77.574044,The London Curry House,12.985377235675857,77.57907247873233,Vegetarian / Vegan Restaurant
Seshadripuram,12.9889055,77.574044,Gold Finch Hotel,12.985300141470223,77.57947463203604,Hotel
Seshadripuram,12.9889055,77.574044,Oval Bar,12.991576356850796,77.57096735756065,Cocktail Bar
Seshadripuram,12.9889055,77.574044,McDonald's,12.991638795756195,77.57132454420075,Fast Food Restaurant
Seshadripuram,12.9889055,77.574044,Pizza Hut,12.991494808536192,77.57102332705847,American Restaurant
Seshadripuram,12.9889055,77.574044,Trinity Isle,12.988835410691593,77.57378258899332,Hotel
Seshadripuram,12.9889055,77.574044,Chikkanna Tiffen Room,12.990648,77.575966,Indian Restaurant
Seshadripuram,12.9889055,77.574044,Sbarro,12.991616045479297,77.57052596076036,Italian Restaurant
Seshadripuram,12.9889055,77.574044,Imagine,12.991669401242829,77.57059254930996,Electronics Store
Seshadripuram,12.9889055,77.574044,Dew Drops Hotel,12.98604642004778,77.57242255551171,Hotel
Seshadripuram,12.9889055,77.574044,Lush,12.984587,77.57647,Buffet
Seshadripuram,12.9889055,77.574044,Park 'n' Eat,12.98671647382824,77.57914420785065,Asian Restaurant
Seshadripuram,12.9889055,77.574044,Kumara Park West Park,12.99253763031361,77.57845023392119,Park
Seshadripuram,12.9889055,77.574044,Coastaal Express,12.986695356740789,77.57949678974825,Indian Restaurant
Seshadripuram,12.9889055,77.574044,Bean Here,12.984910144459601,77.5784782168233,Café
Seshadripuram,12.9889055,77.574044,bhimas garden,12.994423773320197,77.57694474358418,Indian Restaurant
Seshadripuram,12.9889055,77.574044,Nalapads International Hotel Bangalore,12.984948468525834,77.57911062856498,Hotel
Shivajinagar,12.9856503,77.60569269999999,Krispy Kreme,12.982630085691335,77.60702667362864,Donut Shop
Shivajinagar,12.9856503,77.60569269999999,Samarkand,12.980616230542605,77.60466776400496,Afghan Restaurant
Shivajinagar,12.9856503,77.60569269999999,Peppa Zzing,12.979700117783468,77.60590748359836,Burger Joint
Shivajinagar,12.9856503,77.60569269999999,Westside,12.982569632808165,77.61071315050584,Shopping Mall
Shivajinagar,12.9856503,77.60569269999999,Commercial Street,12.982042065566514,77.60732742687324,Market
Shivajinagar,12.9856503,77.60569269999999,Shiv Sagar,12.981878892708366,77.60832185643622,Indian Restaurant
Shivajinagar,12.9856503,77.60569269999999,Unicorn Bar and Restaurant,12.97978994263921,77.60571008213338,Bar
Shivajinagar,12.9856503,77.60569269999999,The Savera Tea Centre,12.985953082615865,77.60501117245559,Tea Room
Shivajinagar,12.9856503,77.60569269999999,MTR  1924 commercial street,12.98206161031047,77.60731388030852,South Indian Restaurant
Shivajinagar,12.9856503,77.60569269999999,Mysore Saree Udyog,12.981432579493033,77.61021444999658,Women's Store
Shivajinagar,12.9856503,77.60569269999999,C. Krishniah Chetty & Sons - The Diamond Experience,12.980602958547944,77.6074779234965,Jewelry Store
Shivajinagar,12.9856503,77.60569269999999,Hotel Taj,12.985061885882928,77.60700038358272,Indian Restaurant
Shivajinagar,12.9856503,77.60569269999999,Vashi's House of Jeans,12.981448843998486,77.61030793190002,Clothing Store
Shivajinagar,12.9856503,77.60569269999999,fabindia,12.982026491165609,77.60883376982564,Clothing Store
Shivajinagar,12.9856503,77.60569269999999,Lazeez,12.9826552284565,77.60696805593302,Indian Restaurant
Shivajinagar,12.9856503,77.60569269999999,Konark Restaurant,12.982207399044302,77.60804553831919,Indian Restaurant
Shivajinagar,12.9856503,77.60569269999999,Hotel Hilal,12.985825824187911,77.60516013761593,Indian Restaurant
Shivajinagar,12.9856503,77.60569269999999,KFC,12.982456870667862,77.60754653264502,Fast Food Restaurant
Shivajinagar,12.9856503,77.60569269999999,Ramada Bangalore,12.984246462727246,77.60044692108382,Hotel
Shivajinagar,12.9856503,77.60569269999999,Cafe Coffee Day,12.984653169754926,77.60021209716797,Café
Shivajinagar,12.9856503,77.60569269999999,Max Retail,12.982668986905972,77.60710587571658,Clothing Store
Shivajinagar,12.9856503,77.60569269999999,The Monarch Luxur,12.980204018180357,77.60494084393294,Hotel
Shivajinagar,12.9856503,77.60569269999999,Sreeraj Lassi Bar,12.982748104444225,77.61073855097732,Juice Bar
Shivajinagar,12.9856503,77.60569269999999,Vero Moda,12.98162109481204,77.60976128740785,Women's Store
Shivajinagar,12.9856503,77.60569269999999,Anand Sweets,12.981667423204883,77.60979008346546,Candy Store
Shivajinagar,12.9856503,77.60569269999999,Empire Restaurant,12.979717110452233,77.60265468004356,Indian Restaurant
Shivajinagar,12.9856503,77.60569269999999,Imperial Restaurant,12.982176147381397,77.6032790142766,Indian Restaurant
Shivajinagar,12.9856503,77.60569269999999,The Infantry Hotel,12.980960709261531,77.6046633702355,Hotel
Shivajinagar,12.9856503,77.60569269999999,Hotel Hamza,12.98594093473496,77.60499729621735,Indian Restaurant
Shivajinagar,12.9856503,77.60569269999999,World of Titan,12.981826244329444,77.60857820946586,Accessories Store
Shivajinagar,12.9856503,77.60569269999999,Empire Hotel,12.979906705244636,77.6026652896377,Indian Restaurant
Ulsoor,12.9817001,77.62841519999999,Ulsoor Metro Station,12.976108422537322,77.62637477866377,Light Rail Station
Ulsoor,12.9817001,77.62841519999999,Au Bon Pain,12.982879,77.624741,Café
Ulsoor,12.9817001,77.62841519999999,Subway,12.98289040338682,77.62467809796867,Burger Joint
Ulsoor,12.9817001,77.62841519999999,The Bull Ring Arena,12.982316365317239,77.63389313723755,Soccer Field
Vasanth Nagar,12.9896194,77.5927948,Infinitea,12.987156756402875,77.59483450996156,Tea Room
Vasanth Nagar,12.9896194,77.5927948,Millers 46,12.991665958945687,77.59420704126842,Steakhouse
Vasanth Nagar,12.9896194,77.5927948,Ujwal Bar & Restaurant,12.99227960861634,77.59447349833962,Indian Restaurant
Vasanth Nagar,12.9896194,77.5927948,Fat Buddha,12.989882118854355,77.5912540122119,Chinese Restaurant
Vasanth Nagar,12.9896194,77.5927948,Pasta Street - Cunningham Road,12.988385129794183,77.59389142600642,Italian Restaurant
Vasanth Nagar,12.9896194,77.5927948,Ramana's,12.988734023699127,77.5940574616001,Indian Restaurant
Vasanth Nagar,12.9896194,77.5927948,Dolci,12.98645048861501,77.59482957745334,Dessert Shop
Vasanth Nagar,12.9896194,77.5927948,Alliance Française,12.99123205419195,77.59672285626755,Concert Hall
Vasanth Nagar,12.9896194,77.5927948,"Shangri-La Hotel, Bengaluru",12.99211243040235,77.58844611108599,Hotel
Vasanth Nagar,12.9896194,77.5927948,Desserted,12.993038920209258,77.58937582405173,French Restaurant
Vasanth Nagar,12.9896194,77.5927948,National Gallery of Modern Arts,12.989789993304006,77.58838932516419,Art Museum
Vasanth Nagar,12.9896194,77.5927948,Hammered,12.986382382721553,77.59515375121238,Hookah Bar
Vasanth Nagar,12.9896194,77.5927948,Imperial Restaurant,12.991149886578006,77.59383746322487,Indian Restaurant
Vasanth Nagar,12.9896194,77.5927948,Banjara's Melting Pot,12.986476197279055,77.59558567845365,Indian Restaurant
Vasanth Nagar,12.9896194,77.5927948,Bangalore Golf Club,12.989680857980485,77.58593261533458,Golf Course
Vasanth Nagar,12.9896194,77.5927948,Karnataka Badminton Association,12.989514454878785,77.5969601565791,Badminton Court
Vasanth Nagar,12.9896194,77.5927948,Chevron Hotel,12.983618517251454,77.59437895678766,Hotel
Vasanth Nagar,12.9896194,77.5927948,The Sugar Factory,12.990041405869428,77.58632017966434,Nightclub
Vasanth Nagar,12.9896194,77.5927948,Watson's,12.994217603999449,77.59464460568408,Pub
Vasanth Nagar,12.9896194,77.5927948,Cafe Coffee Day,12.988458,77.59205,Coffee Shop
Vasanth Nagar,12.9896194,77.5927948,Le Meridien,12.990263,77.586466,Hotel
Vasanth Nagar,12.9896194,77.5927948,Oriental Spice,12.98389271843625,77.59359116991038,Chinese Restaurant
Vasanth Nagar,12.9896194,77.5927948,Cafe Coffee Day,12.989304961550355,77.59288289535611,Coffee Shop
Vasanth Nagar,12.9896194,77.5927948,Ta'aam,12.986555211428703,77.59837208307911,Middle Eastern Restaurant
Vasanth Nagar,12.9896194,77.5927948,Hotel Chandrika,12.98965,77.59297,Vegetarian / Vegan Restaurant
Vasanth Nagar,12.9896194,77.5927948,Casa Raviera,12.989019782378223,77.59342889070933,Italian Restaurant
Vasanth Nagar,12.9896194,77.5927948,Shezan,12.987163496099882,77.59484021516408,Indian Restaurant
Vasanth Nagar,12.9896194,77.5927948,La Brasserie,12.990219179680775,77.58631175795396,Coffee Shop
Vasanth Nagar,12.9896194,77.5927948,Subway,12.987839872381402,77.59456150081076,Sandwich Place
Vasanth Nagar,12.9896194,77.5927948,The Zodiac,12.989588592716233,77.59505407068745,Indian Restaurant
Vasanth Nagar,12.9896194,77.5927948,Pizza Stop,12.98642070767535,77.59480897617073,Pizza Place
Vasanth Nagar,12.9896194,77.5927948,Jawaharlal Nehru Planetarium,12.984570044084577,77.59016327148883,Planetarium
Vasanth Nagar,12.9896194,77.5927948,Domino's Pizza,12.988320482792965,77.59400417472338,Pizza Place
Vasanth Nagar,12.9896194,77.5927948,Karnataka State Billiards Association,12.989906017226252,77.59659072410895,Pool Hall
Vasanth Nagar,12.9896194,77.5927948,"Barista, Cunningham Road",12.985865889116075,77.59566307067871,Café
Vasanth Nagar,12.9896194,77.5927948,Secret Garden Cafe,12.987379285480086,77.59592053563657,Salad Place
Vasanth Nagar,12.9896194,77.5927948,Chungs,12.989102438265864,77.59402695478403,Chinese Restaurant
Vasanth Nagar,12.9896194,77.5927948,Cafe Coffee Day,12.987448449012476,77.59460640907776,Coffee Shop
Vasanth Nagar,12.9896194,77.5927948,The Banjara,12.986494358166347,77.5955311817437,Indian Restaurant
Vasanth Nagar,12.9896194,77.5927948,KFC,12.988550451776677,77.59386808727444,Fast Food Restaurant
Vasanth Nagar,12.9896194,77.5927948,Bangalore Bistro,12.988101433291202,77.59411957508252,Mediterranean Restaurant
Vasanth Nagar,12.9896194,77.5927948,Cafe Coffee Day,12.985428833454286,77.59627020904797,Café
Vasanth Nagar,12.9896194,77.5927948,Nisarga Garden Restaurant,12.983331536725942,77.5944306645044,Indian Restaurant
Vasanth Nagar,12.9896194,77.5927948,Fortune Select JP Cosmos,12.989569022690397,77.59504111868993,Hotel
Vasanth Nagar,12.9896194,77.5927948,Rahham's Families Restaurant,12.985081126305708,77.5965503045038,Indian Restaurant
Vasanth Nagar,12.9896194,77.5927948,Pai Vihar,12.99317188523833,77.59588688029433,Indian Restaurant
Vasanth Nagar,12.9896194,77.5927948,Cafe Coffee Day,12.992710818465119,77.58885350887968,Coffee Shop
Vasanth Nagar,12.9896194,77.5927948,Minsk Square,12.985157729472261,77.59758892101252,Intersection
Bellandur,12.9304278,77.678404,Kicks On Grass,12.930044650317177,77.67967926958146,Soccer Field
Bellandur,12.9304278,77.678404,Chez Nous,12.929695825797099,77.6831534617373,Lounge
Bellandur,12.9304278,77.678404,Subway,12.926416869833753,77.68168968539374,Sandwich Place
Bellandur,12.9304278,77.678404,Novotel Bengaluru Techpark,12.929698642829472,77.68329445957798,Hotel
Bellandur,12.9304278,77.678404,Cafe Coffee Day Central 3,12.92610692804549,77.67575514166917,Café
Bellandur,12.9304278,77.678404,Domino's Pizza,12.926044982508452,77.67610742080528,Pizza Place
Bellandur,12.9304278,77.678404,Courtyard Marriott Bengaluru,12.928216916330669,77.68245692208089,Hotel
Bellandur,12.9304278,77.678404,McDonald's,12.927227760581616,77.67568804073711,Fast Food Restaurant
Bellandur,12.9304278,77.678404,KFC,12.925979932657961,77.67534887183118,Fast Food Restaurant
Bellandur,12.9304278,77.678404,Bangalore Central,12.926005766187012,77.675301220687,Shopping Mall
Bellandur,12.9304278,77.678404,Cafe Coffee Day,12.926102718690384,77.68056393561588,Café
Bellandur,12.9304278,77.678404,Sobha Lakeview Clubhouse,12.9290969681756,77.67237424850464,Gym
Bellandur,12.9304278,77.678404,Au Bon Pain,12.925365545956126,77.68156480973929,Bakery
Bellandur,12.9304278,77.678404,Thalassery Restaurant,12.925844701985964,77.67590136682072,Kerala Restaurant
Bellandur,12.9304278,77.678404,PVR,12.926327602774293,77.6753469438218,Multiplex
Bellandur,12.9304278,77.678404,Bellandur Lake,12.929714391044305,77.67750339028785,Lake
Bellandur,12.9304278,77.678404,Aangan,12.925264508609228,77.67411231994629,Indian Restaurant
Bellandur,12.9304278,77.678404,McDonald's,12.925893055485707,77.67535617670988,Fast Food Restaurant
Bellandur,12.9304278,77.678404,Mast Kalandar,12.925604246655766,77.67596592575643,Indian Restaurant
Bellandur,12.9304278,77.678404,Hotel Ibis,12.929938024248003,77.68362918589432,Hotel
Bellandur,12.9304278,77.678404,Punjabi Tadka,12.926036986188642,77.67674903012201,Indian Restaurant
Bellandur,12.9304278,77.678404,the SQUARE,12.929657752748414,77.68345841847322,Hotel Bar
Bellandur,12.9304278,77.678404,Nukkad,12.926544082041422,77.67714747654095,Indian Restaurant
Bellandur,12.9304278,77.678404,Dosa Delight,12.927320796463064,77.6815088952202,Cafeteria
Bellandur,12.9304278,77.678404,Costa Coffee @ The Bay,12.926108043345168,77.67969724966395,Café
Bellandur,12.9304278,77.678404,Chef Baker's,12.92595102627893,77.6768678926166,Bakery
Bellandur,12.9304278,77.678404,BG's Bar & Grill (@Courtyard Marriott),12.925624,77.67746,Restaurant
Bellandur,12.9304278,77.678404,Chai Point -Ecospace,12.926085984831653,77.68072478864069,Tea Room
Bellandur,12.9304278,77.678404,fairfield Marriott,12.92766,77.682684,Hotel
Bellandur,12.9304278,77.678404,Punjab Di Shaan,12.925613082648194,77.67642055688341,Indian Restaurant
Bellandur,12.9304278,77.678404,Sri Krishna Upahar,12.925801446100806,77.67590052684398,Breakfast Spot
Bellandur,12.9304278,77.678404,Binge The Lounge,12.925718112080334,77.67541963669818,Lounge
Bellandur,12.9304278,77.678404,Chatoree,12.9290337243058,77.67239445475622,Indian Restaurant
Bellandur,12.9304278,77.678404,Intel - Cafeteria,12.927671736221248,77.68390760294052,Cafeteria
Bellandur,12.9304278,77.678404,Play Station,12.92736300229366,77.67252306859287,Badminton Court
Bellandur,12.9304278,77.678404,Gusto's Pizza,12.92497357774263,77.6747374401529,Pizza Place
CV Raman Nagar,12.9793254,77.6641841,Barista Lavazza,12.979603129117667,77.65797139397279,Coffee Shop
CV Raman Nagar,12.9793254,77.6641841,BTP Prison Gate,12.979456579011261,77.66599695737797,Smoke Shop
CV Raman Nagar,12.9793254,77.6641841,Tea O' Clock,12.980122413699588,77.66553782779751,Coffee Shop
CV Raman Nagar,12.9793254,77.6641841,Biriyani Mane,12.980003790916342,77.66634384545513,Indian Restaurant
CV Raman Nagar,12.9793254,77.6641841,Andhra Mess,12.981548942817017,77.66609361401404,Indian Restaurant
CV Raman Nagar,12.9793254,77.6641841,Subway,12.979143696608501,77.65887240161287,Sandwich Place
CV Raman Nagar,12.9793254,77.6641841,U.S. Pizza,12.97384728526735,77.66561685559721,Pizza Place
CV Raman Nagar,12.9793254,77.6641841,DRDO Complex Fountain Square,12.9851641685921,77.66326407884289,Park
CV Raman Nagar,12.9793254,77.6641841,Embassy Prime,12.978443117524888,77.65739679336548,Office
Hoodi,12.9895552,77.71265710000002,Kamat Yatrinivas,12.989624169497196,77.71307381402724,Indian Restaurant
Hoodi,12.9895552,77.71265710000002,Bhagini Bar And Restaurant,12.989227220638842,77.71247076736942,Indian Restaurant
Hoodi,12.9895552,77.71265710000002,Hoodi Bus Stop,12.992148364783805,77.71578483086391,Bus Station
Hoodi,12.9895552,77.71265710000002,Printo,12.985687985509006,77.7084173163989,Paper / Office Supplies Store
Hoodi,12.9895552,77.71265710000002,Buon Cibo,12.98556340289164,77.70811545032772,Salad Place
Hoodi,12.9895552,77.71265710000002,Families supermarket,12.9844475,77.70828,Supermarket
Krishnarajapuram,13.0169992,77.7044335,Purvi Restaurant,13.019402665249341,77.70734960125455,Indian Restaurant
Krishnarajapuram,13.0169992,77.7044335,Domino's Pizza,13.022,77.709,Pizza Place
Krishnarajapuram,13.0169992,77.7044335,Cafe Coffee Day,13.020087755467804,77.70907135674662,Café
Krishnarajapuram,13.0169992,77.7044335,KR Inn,13.014252084642907,77.70077538100173,Hotel
Krishnarajapuram,13.0169992,77.7044335,Park n Eat,13.01718841579336,77.70475573754564,Indian Restaurant
Mahadevapura,12.9879659,77.6895248,Subway,12.985817,77.6944,Sandwich Place
Mahadevapura,12.9879659,77.6895248,Cafe Coffee Day,12.982808108506525,77.69389886848724,Coffee Shop
Mahadevapura,12.9879659,77.6895248,Happy Land Supermarket,12.991557970815457,77.69092450574217,Convenience Store
Mahadevapura,12.9879659,77.6895248,Mahadevpura,12.991451668028535,77.68710553790022,Bus Station
Mahadevapura,12.9879659,77.6895248,Hunan Express,12.985786415359756,77.69492198621809,Chinese Restaurant
Mahadevapura,12.9879659,77.6895248,Ericsson Cafetería,12.98298129017871,77.69329907839169,Café
Mahadevapura,12.9879659,77.6895248,Iris Inn by Bhagini,12.991081586886624,77.6879332903409,Indian Restaurant
Marathahalli,12.956924,77.701127,Hotel Mariya Circle,12.958452885379561,77.69947076926688,Indian Restaurant
Marathahalli,12.956924,77.701127,Thalassery Restaurant,12.956742852341112,77.70265196053191,Kerala Restaurant
Marathahalli,12.956924,77.701127,Suchithra Biryani House,12.956755733708182,77.70202764332885,Indian Restaurant
Marathahalli,12.956924,77.701127,A2B Adayar Ananda Bhavan,12.956770288414699,77.70236012600257,Vegetarian / Vegan Restaurant
Marathahalli,12.956924,77.701127,Torq 3,12.962902690186718,77.7034680192233,Racetrack
Marathahalli,12.956924,77.701127,Adyar Ananda Bhavan (A2B),12.95671565642854,77.70287511833725,Vegetarian / Vegan Restaurant
Marathahalli,12.956924,77.701127,Shanmukha Restaurant,12.955468887037663,77.70060396220337,Indian Restaurant
Marathahalli,12.956924,77.701127,Wareabouts Grill & Lounge,12.951862349683612,77.6997718156604,Lounge
Marathahalli,12.956924,77.701127,Delhiwalle,12.961735124700393,77.70148707021339,Indian Restaurant
Marathahalli,12.956924,77.701127,Biryani Zone,12.952457605613839,77.70021375051905,Indian Restaurant
Marathahalli,12.956924,77.701127,Wangs Kitchen,12.96152798105911,77.70163507052047,Chinese Restaurant
Marathahalli,12.956924,77.701127,"Max outlet, marathahalli",12.956978196022979,77.69939452186136,Clothing Store
Marathahalli,12.956924,77.701127,Phileas Hogg,12.950450605270142,77.699911491916,Gastropub
Marathahalli,12.956924,77.701127,Salt & Pepper,12.958599183929076,77.69920706748962,Indian Restaurant
Marathahalli,12.956924,77.701127,Reebok Factory Outlet,12.956949118583074,77.69846089485821,Sporting Goods Shop
Marathahalli,12.956924,77.701127,Nike Factory Store,12.956793071646793,77.69791301429488,Clothing Store
Marathahalli,12.956924,77.701127,Citizen Bakery,12.955914305882079,77.69796332996906,Bakery
Marathahalli,12.956924,77.701127,Extreme sports bar,12.956263878163805,77.70555514594501,Sports Bar
Marathahalli,12.956924,77.701127,Jaffa's Biryani,12.953306561529702,77.69817577367645,Indian Restaurant
Marathahalli,12.956924,77.701127,oye punjabi d a dhaba,12.952750834477502,77.69895845752735,Indian Restaurant
Marathahalli,12.956924,77.701127,Samosa n chai shop,12.953238711714958,77.69815287681344,Café
Marathahalli,12.956924,77.701127,Eateroo,12.952980684786876,77.69852239148811,Burger Joint
Marathahalli,12.956924,77.701127,E-Zone Club,12.963074139604137,77.70308017730713,Racetrack
Marathahalli,12.956924,77.701127,U.S Pizza,12.961934352570324,77.70146300893168,Pizza Place
Marathahalli,12.956924,77.701127,CCD lounge,12.962184149543084,77.70156922750202,Café
Marathahalli,12.956924,77.701127,Madurai Idly Shop,12.951378613621602,77.69768379815858,Breakfast Spot
Varthur,12.9388787,77.7412047,Vinayaka Theatre,12.935615601869795,77.7444955913883,Indie Movie Theater
Varthur,12.9388787,77.7412047,shri guru narasimha hotel,12.94001136100228,77.74778704573104,Indian Restaurant
Whitefield,12.9698196,77.7499721,Herbs and Spices,12.968145444339365,77.75086162627093,Eastern European Restaurant
Whitefield,12.9698196,77.7499721,Golds Gym,12.97221731296144,77.75052890663683,Gym / Fitness Center
Whitefield,12.9698196,77.7499721,Chef Baker's,12.969729807571616,77.75130192049029,Bakery
Whitefield,12.9698196,77.7499721,Royal Orchid Suites,12.966774389552356,77.75126172144326,Hotel
Whitefield,12.9698196,77.7499721,Cafe Coffee Day,12.963940124607525,77.7485630938307,Café
Whitefield,12.9698196,77.7499721,Goli Vadapav - Whitefield Main Road,12.97634480287241,77.75101693479719,Indian Restaurant
Whitefield,12.9698196,77.7499721,The river side bar and kitchen,12.967297991535775,77.74961434744236,Hotel Bar
Whitefield,12.9698196,77.7499721,Cheenavala,12.966435104932492,77.7493684737628,Kerala Restaurant
Whitefield,12.9698196,77.7499721,Reliance Fresh,12.970893904861782,77.75004462515277,Department Store
Whitefield,12.9698196,77.7499721,Cult - The Workout Station Whitefield,12.968434401721364,77.74959676559834,Gym / Fitness Center
Whitefield,12.9698196,77.7499721,burgundy restaurant,12.96681221931033,77.75138015172881,Swiss Restaurant
Whitefield,12.9698196,77.7499721,refresh,12.965621480928588,77.74923436060024,Café
Whitefield,12.9698196,77.7499721,Onions,12.965670914880954,77.74887672470685,Indian Restaurant
Whitefield,12.9698196,77.7499721,Namdhari fresh,12.975124113810963,77.75076401268903,Grocery Store
Bommanahalli,12.9029804,77.6241936,Faaso's,12.899974590155443,77.62262100527339,Indian Restaurant
Bommanahalli,12.9029804,77.6241936,Reliance fresh,12.89930815018561,77.62478041927645,Department Store
Bommanahalli,12.9029804,77.6241936,Hotel The Grand,12.899251377173789,77.62658894062042,Indian Restaurant
Bommanahalli,12.9029804,77.6241936,Ananda Honda,12.909017541259598,77.62717474696483,Auto Garage
Bommasandra,12.8167303,77.6974369,Decathlon,12.818240370103121,77.6909127193378,Sporting Goods Shop
BTM Layout,12.9165757,77.6101163,Core Fitness,12.913980437677816,77.60938154390725,Gym
BTM Layout,12.9165757,77.6101163,BTM Park,12.919745151271332,77.61025672339319,Park
BTM Layout,12.9165757,77.6101163,Adyar Ananda Bhavan (A2B),12.916652783966867,77.60974528618067,Vegetarian / Vegan Restaurant
BTM Layout,12.9165757,77.6101163,Gelato Italiano,12.914058440666066,77.60985388233051,Ice Cream Shop
BTM Layout,12.9165757,77.6101163,New Friends rooftop euro restaurant,12.916650981924922,77.61240911304623,Restaurant
BTM Layout,12.9165757,77.6101163,McDonald's,12.915873694787143,77.61011931804437,Fast Food Restaurant
BTM Layout,12.9165757,77.6101163,Gyani Da Punjabi Dhaba,12.916176394478867,77.61219972307423,Indian Restaurant
BTM Layout,12.9165757,77.6101163,Ginger Tea House,12.912497546997349,77.60637334170193,Bakery
BTM Layout,12.9165757,77.6101163,Ibaco,12.915003468321885,77.61358010720942,Ice Cream Shop
BTM Layout,12.9165757,77.6101163,Ashirwad Departmental Store,12.91523657993885,77.60605703454323,Department Store
BTM Layout,12.9165757,77.6101163,Subway,12.916788672214087,77.61236602044585,Sandwich Place
BTM Layout,12.9165757,77.6101163,Flavours of China,12.913776163475877,77.60766226436323,Chinese Restaurant
BTM Layout,12.9165757,77.6101163,Marwa Restuarant,12.914572061318863,77.6100918571155,Indian Restaurant
BTM Layout,12.9165757,77.6101163,Cafe Coffee Day,12.914730536317068,77.6100664930708,Coffee Shop
BTM Layout,12.9165757,77.6101163,Momoz,12.913854447261592,77.60892801164833,Dim Sum Restaurant
BTM Layout,12.9165757,77.6101163,Balaji's Veg,12.913809983666008,77.6081796888305,Vegetarian / Vegan Restaurant
BTM Layout,12.9165757,77.6101163,Domino's Pizza,12.919762611708501,77.6116163013481,Pizza Place
BTM Layout,12.9165757,77.6101163,Amma's Pastries,12.913940673133226,77.609944148674,Bakery
BTM Layout,12.9165757,77.6101163,Cafe Coffee Day,12.916634025996075,77.60648562709862,Café
BTM Layout,12.9165757,77.6101163,Baskin-Robbins,12.913696604939178,77.60702243283617,Ice Cream Shop
BTM Layout,12.9165757,77.6101163,Disney Bakery,12.913696605062817,77.60722453506158,Bakery
BTM Layout,12.9165757,77.6101163,Domino's Pizza,12.9198065,77.61234,Pizza Place
BTM Layout,12.9165757,77.6101163,Nandi Chat House,12.913761726965527,77.607803287084,Snack Place
BTM Layout,12.9165757,77.6101163,Laddoos,12.913935949778182,77.60974042756658,Snack Place
BTM Layout,12.9165757,77.6101163,Beijing Bites,12.913109146733584,77.61006995312864,Chinese Restaurant
BTM Layout,12.9165757,77.6101163,Punjabi Sanjhaa Chullah,12.916514667275667,77.6053553926602,Asian Restaurant
BTM Layout,12.9165757,77.6101163,Cafe Coffee Day,12.912062368073105,77.60615551029039,Café
BTM Layout,12.9165757,77.6101163,Leo's Paratha Rolls,12.913787269436522,77.60781464804911,Snack Place
BTM Layout,12.9165757,77.6101163,Shaan-e-Punjab,12.914004431026989,77.60990519684091,Indian Restaurant
BTM Layout,12.9165757,77.6101163,FRIENDS,12.916709822582963,77.61234151285973,Italian Restaurant
BTM Layout,12.9165757,77.6101163,Absolute Barbecues,12.916580723208021,77.60482036990406,BBQ Joint
BTM Layout,12.9165757,77.6101163,Faaso's,12.91370875021411,77.60711484114036,Fast Food Restaurant
BTM Layout,12.9165757,77.6101163,Narmadha's Hyderabad Biriyani,12.916625145521555,77.60625482515547,Indian Restaurant
BTM Layout,12.9165757,77.6101163,Muthashi Family Restaurant,12.92075399321644,77.61326428119887,Indian Restaurant
BTM Layout,12.9165757,77.6101163,Subway,12.91398050905831,77.60989936445148,Sandwich Place
BTM Layout,12.9165757,77.6101163,Daana Paani,12.916713751760737,77.60666434394153,Indian Restaurant
BTM Layout,12.9165757,77.6101163,Brewz Coffee,12.916329902220491,77.60413161529857,Coffee Shop
BTM Layout,12.9165757,77.6101163,Swadishta Aahar,12.913976250247863,77.61002270984167,Indian Restaurant
BTM Layout,12.9165757,77.6101163,Golmaal Paratha,12.913876572503353,77.60901553628965,Indian Restaurant
BTM Layout,12.9165757,77.6101163,Cuppa,12.913754233474105,77.60781136005453,Coffee Shop
BTM Layout,12.9165757,77.6101163,Mega Gym,12.91366863545726,77.61208240168027,Gym
BTM Layout,12.9165757,77.6101163,Gangothri Garden Restaurant,12.919573770136859,77.61259665439383,Indian Restaurant
BTM Layout,12.9165757,77.6101163,BTM Water Tank,12.916612059819256,77.60608836777044,Bus Line
BTM Layout,12.9165757,77.6101163,Lassi Shop,12.913702,77.60709,Coffee Shop
BTM Layout,12.9165757,77.6101163,Flavour Square,12.913913358544029,77.61336537172333,Indian Restaurant
BTM Layout,12.9165757,77.6101163,AXA Tea Stop,12.916411947450076,77.61527533089118,Tea Room
BTM Layout,12.9165757,77.6101163,Mast Kalandar,12.91098100453867,77.60998771522982,Vegetarian / Vegan Restaurant
BTM Layout,12.9165757,77.6101163,Snakart,12.912601154778974,77.60619467674191,Snack Place
BTM Layout,12.9165757,77.6101163,Momo Shop Adda,12.911893359691614,77.60645205594193,Dumpling Restaurant
BTM Layout,12.9165757,77.6101163,Magix's,12.916638822349144,77.60366001976124,Indian Restaurant
BTM Layout,12.9165757,77.6101163,Hot Burger,12.917472324353131,77.60364323376352,Food Court
BTM Layout,12.9165757,77.6101163,Top Foam,12.917654622014373,77.60365442442894,Restaurant
Electronic City,12.8452145,77.6601695,Golconda - Infosys Campus,12.847172335196069,77.66337797676378,Food Court
Electronic City,12.8452145,77.6601695,Crowne Plaza,12.85010524460449,77.66021400424233,Hotel
Electronic City,12.8452145,77.6601695,24@43 - Crowne Plaza Bengaluru Electronics City,12.850096181801618,77.66030198066674,Coffee Shop
Electronic City,12.8452145,77.6601695,The Terminus,12.850375396007424,77.6601080806507,Bar
Electronic City,12.8452145,77.6601695,Citrus Cafe,12.840716367298848,77.6598804045125,Café
Electronic City,12.8452145,77.6601695,Republic of Noodles,12.840654031051606,77.65960905441527,Asian Restaurant
Electronic City,12.8452145,77.6601695,Hot Attack,12.850678902961052,77.65763643359821,Food
Electronic City,12.8452145,77.6601695,Laddoos,12.848821615711403,77.6577272640607,Breakfast Spot
Electronic City,12.8452145,77.6601695,Beijing Bites,12.848757142587052,77.65774429170429,Asian Restaurant
Electronic City,12.8452145,77.6601695,Baskin-Robbins,12.849758693497442,77.66355888948081,Ice Cream Shop
Electronic City,12.8452145,77.6601695,Domino's Pizza,12.843,77.656,Pizza Place
Electronic City,12.8452145,77.6601695,Cafe Coffee Day,12.8400250541589,77.66452636195879,Café
Electronic City,12.8452145,77.6601695,KFC,12.839583282914875,77.65954935083435,Fast Food Restaurant
Electronic City,12.8452145,77.6601695,Cafe Coffee Day,12.850039199159092,77.6624236365504,Coffee Shop
Electronic City,12.8452145,77.6601695,Thanima,12.839129164678068,77.65731622624138,Indian Restaurant
Electronic City,12.8452145,77.6601695,New Punjabi Food Corner,12.839091891455169,77.65800448236476,Indian Restaurant
Electronic City,12.8452145,77.6601695,My Cousin's Place,12.846002098151649,77.6588556238578,Burger Joint
Electronic City,12.8452145,77.6601695,Delhi Base Food Court,12.84545790154949,77.65903458644907,Indian Restaurant
Electronic City,12.8452145,77.6601695,Lemon Tree,12.840633163109223,77.65984170263394,Hotel
Electronic City,12.8452145,77.6601695,Lords plaza,12.844929050215962,77.66557342640274,Hotel
Electronic City,12.8452145,77.6601695,Paradise Biryani,12.848379,77.657681,Hyderabadi Restaurant
Electronic City,12.8452145,77.6601695,Cafe Coffee Day,12.840606566764414,77.66382655060777,Coffee Shop
Electronic City,12.8452145,77.6601695,Burgundy Grill - Crowne Plaza Bengaluru Electronics City,12.850107659040553,77.66004124569848,French Restaurant
Electronic City,12.8452145,77.6601695,Aloro - Crowne Plaza Bengaluru Electronics City,12.85011402590554,77.66012513356095,Italian Restaurant
Electronic City,12.8452145,77.6601695,Chung Wah @ Oyster's Inn,12.83994630675981,77.66400355602975,Chinese Restaurant
Electronic City,12.8452145,77.6601695,Thalassery Restaurant,12.850560281397463,77.6582264562178,Kerala Restaurant
Electronic City,12.8452145,77.6601695,Sri Lakshmi Ganesh Tiffin Center,12.850785254586814,77.65810062227924,Breakfast Spot
Electronic City,12.8452145,77.6601695,Taste Of South,12.850943800404798,77.65749102470019,Asian Restaurant
Electronic City,12.8452145,77.6601695,Sodexo Canteen,12.848794007771078,77.66560567110099,Food Court
HSR Layout,12.9121181,77.6445548,Northam's Pizza Pita,12.908749,77.646835,Pizza Place
HSR Layout,12.9121181,77.6445548,Shree Sweets,12.914205804805183,77.6409858894298,Snack Place
HSR Layout,12.9121181,77.6445548,House of Commons,12.911993951538978,77.63893839495603,Pub
HSR Layout,12.9121181,77.6445548,Leon Grill,12.911856080432864,77.64377622016352,Kebab Restaurant
HSR Layout,12.9121181,77.6445548,Art Blend Cafe,12.908900796279104,77.64777283762216,Café
HSR Layout,12.9121181,77.6445548,Pappu Chai Walla,12.91311844081052,77.64461143949057,Café
HSR Layout,12.9121181,77.6445548,Cream Stone,12.912336259572271,77.63858101632954,Ice Cream Shop
HSR Layout,12.9121181,77.6445548,Here & Now,12.913617873412562,77.63824265968887,Burger Joint
HSR Layout,12.9121181,77.6445548,Domino's Pizza,12.912,77.645,Pizza Place
HSR Layout,12.9121181,77.6445548,The Punjabi Rasoi,12.911959008177734,77.63842481946776,Punjabi Restaurant
HSR Layout,12.9121181,77.6445548,Mumbai Tiffin,12.913404876416857,77.6445623279477,Indian Restaurant
HSR Layout,12.9121181,77.6445548,Calvins,12.912182357202179,77.6376609572448,Café
HSR Layout,12.9121181,77.6445548,Once Upon A Flame,12.91192776488194,77.63805414341695,Steakhouse
HSR Layout,12.9121181,77.6445548,M K Retail,12.911946541450927,77.65124087365119,Department Store
HSR Layout,12.9121181,77.6445548,Purnabramha Maharashtrian Restaurant,12.912537057400575,77.64457140138857,Maharashtrian Restaurant
HSR Layout,12.9121181,77.6445548,Snap Fitness,12.911908265488748,77.64417258274864,Gym
HSR Layout,12.9121181,77.6445548,Mustard Food Court,12.910819061901945,77.64437614737409,Indian Restaurant
HSR Layout,12.9121181,77.6445548,The Moghul's,12.91228533379858,77.64207017111667,Indian Restaurant
HSR Layout,12.9121181,77.6445548,Cafe Coffee Day,12.912312,77.641245,Café
HSR Layout,12.9121181,77.6445548,HSR Club,12.909721121545761,77.643044269923,General Entertainment
HSR Layout,12.9121181,77.6445548,Nandhini Cool Joint,12.91171280966049,77.64451250539756,Snack Place
HSR Layout,12.9121181,77.6445548,Baskin-Robbins,12.911906479727753,77.63827861415575,Ice Cream Shop
HSR Layout,12.9121181,77.6445548,49ParanthaGali,12.912309452984541,77.63856948157061,North Indian Restaurant
HSR Layout,12.9121181,77.6445548,Drops Total Spirits,12.914411131760744,77.63827698264879,Liquor Store
HSR Layout,12.9121181,77.6445548,Café Coffee Day,12.909285707816219,77.63967275619507,Coffee Shop
HSR Layout,12.9121181,77.6445548,Gold Bean,12.912273478307078,77.64085435241307,Café
HSR Layout,12.9121181,77.6445548,Dragon's Kitchen,12.908937509683257,77.6445923330344,Chinese Restaurant
HSR Layout,12.9121181,77.6445548,Parika,12.912007744765054,77.63934474352479,Seafood Restaurant
HSR Layout,12.9121181,77.6445548,Cult - The Workout Station HSR layout,12.913380972715654,77.64470443929,Gym / Fitness Center
HSR Layout,12.9121181,77.6445548,Jarokha,12.912202292767502,77.6379863475401,Indian Restaurant
HSR Layout,12.9121181,77.6445548,Sri Muthahalli veg,12.914670708384698,77.64461343338355,Indian Restaurant
HSR Layout,12.9121181,77.6445548,Polar Bear,12.90909134698039,77.64319524991593,Ice Cream Shop
HSR Layout,12.9121181,77.6445548,MK Ahmed Super Market,12.911994404250095,77.64869507243618,Department Store
HSR Layout,12.9121181,77.6445548,The Deck,12.911831694909655,77.63884933401974,Lounge
HSR Layout,12.9121181,77.6445548,Kumarakom,12.914371763238996,77.63820416271186,Indian Restaurant
HSR Layout,12.9121181,77.6445548,Silbatti,12.915973,77.64477,Indian Restaurant
HSR Layout,12.9121181,77.6445548,Gold Bean,12.915964274812588,77.6441181925889,Café
HSR Layout,12.9121181,77.6445548,Priya Bakery,12.90848286905921,77.64311391819116,Bakery
HSR Layout,12.9121181,77.6445548,Subway,12.911947644973107,77.63810077808505,Sandwich Place
HSR Layout,12.9121181,77.6445548,Pizza Hut,12.912318394247272,77.63784153282775,Pizza Place
HSR Layout,12.9121181,77.6445548,Hangover,12.911868,77.650381,Bar
HSR Layout,12.9121181,77.6445548,sri gurudev darshini veg restaurant,12.90923,77.639163,South Indian Restaurant
HSR Layout,12.9121181,77.6445548,My Chicken And More,12.90806130938723,77.6491805893033,Fishing Store
HSR Layout,12.9121181,77.6445548,Gubacheez,12.91822426883417,77.64530956352375,Burger Joint
HSR Layout,12.9121181,77.6445548,Go Native,12.913414,77.638337,Vegetarian / Vegan Restaurant
HSR Layout,12.9121181,77.6445548,HSR-BIAS Bus Stop,12.91276499042549,77.63820030356919,Bus Station
HSR Layout,12.9121181,77.6445548,Krispy Kreme,12.913560460777276,77.63825934724365,Donut Shop
HSR Layout,12.9121181,77.6445548,Gonguras,12.91184591750401,77.63806108460021,Indian Restaurant
Koramangala,12.9351929,77.62448069999999,Kota Kachori,12.936175734396235,77.6254861410792,Fast Food Restaurant
Koramangala,12.9351929,77.62448069999999,Ooty Chocolates,12.934957208807058,77.62470384746618,Candy Store
Koramangala,12.9351929,77.62448069999999,The Hole in the Wall Cafe,12.934609045102926,77.62552918399028,Breakfast Spot
Koramangala,12.9351929,77.62448069999999,Chianti,12.933537109665405,77.6218620764095,Italian Restaurant
Koramangala,12.9351929,77.62448069999999,Cake Walk,12.933662058484686,77.62684576441147,Bakery
Koramangala,12.9351929,77.62448069999999,a 1oōo yoga,12.933552473024575,77.62176581506846,Yoga Studio
Koramangala,12.9351929,77.62448069999999,Kargeens,12.935270522729706,77.62417468483564,Café
Koramangala,12.9351929,77.62448069999999,China Pearl,12.936079658346152,77.6213771941108,Chinese Restaurant
Koramangala,12.9351929,77.62448069999999,Nagarjuna,12.933693481714693,77.62115620899334,Andhra Restaurant
Koramangala,12.9351929,77.62448069999999,Ibaco,12.933792011419657,77.62663143399512,Ice Cream Shop
Koramangala,12.9351929,77.62448069999999,Sapphire Toys,12.937305202578477,77.62709219060181,Toy / Game Store
Koramangala,12.9351929,77.62448069999999,Sree Krishna Kafe,12.937064442898347,77.61972922183011,Breakfast Spot
Koramangala,12.9351929,77.62448069999999,Gold's Gym,12.933582851700306,77.6215586723311,Gym
Koramangala,12.9351929,77.62448069999999,Onestà,12.93361066169291,77.62698962902192,Pizza Place
Koramangala,12.9351929,77.62448069999999,Cafe D'hide,12.93357543894524,77.62244184849017,Café
Koramangala,12.9351929,77.62448069999999,Third Wave Coffee Roasters,12.93472830541671,77.62946060985223,Coffee Shop
Koramangala,12.9351929,77.62448069999999,Marks & Spencer,12.938554274857314,77.62897365578651,Clothing Store
Koramangala,12.9351929,77.62448069999999,coast II coast,12.936923694160532,77.62476145559141,Seafood Restaurant
Koramangala,12.9351929,77.62448069999999,TimTai,12.933726701576264,77.62257092482736,Thai Restaurant
Koramangala,12.9351929,77.62448069999999,Om Made Cafe,12.933790479359715,77.62146627154289,Café
Koramangala,12.9351929,77.62448069999999,Bon South,12.933607097271379,77.62231245268157,Indian Restaurant
Koramangala,12.9351929,77.62448069999999,Chai Point,12.938738031326512,77.62593279542986,Café
Koramangala,12.9351929,77.62448069999999,Via Milano,12.936248961165813,77.62759763832022,Italian Restaurant
Koramangala,12.9351929,77.62448069999999,Gilly’s Redefined,12.933387554638834,77.62352536231694,Pub
Koramangala,12.9351929,77.62448069999999,The Flying Squirrel - Micro Roastery & Cafe,12.93361977348849,77.6214462332161,Coffee Shop
Koramangala,12.9351929,77.62448069999999,IRepair India,12.934414212287377,77.61764645576477,Mobile Phone Shop
Koramangala,12.9351929,77.62448069999999,paradigm shift vegan cafe,12.936814522973053,77.62755514947541,Café
Koramangala,12.9351929,77.62448069999999,Anand Sweets,12.937231176489325,77.61955102132941,Indian Sweet Shop
Koramangala,12.9351929,77.62448069999999,Cupcake Noggins,12.934814638746314,77.62807345024756,Cupcake Shop
Koramangala,12.9351929,77.62448069999999,Over The Top,12.934432960693455,77.6234803949894,Lounge
Koramangala,12.9351929,77.62448069999999,Polar Bear,12.936700647875838,77.62050871540843,Dessert Shop
Koramangala,12.9351929,77.62448069999999,Lassi Shop,12.934096040686056,77.6292567381134,Juice Bar
Koramangala,12.9351929,77.62448069999999,My Bar- quarter deck,12.933637032774023,77.62048164854184,Bar
Koramangala,12.9351929,77.62448069999999,Nasi and Mee,12.935061992464211,77.62908336167129,Asian Restaurant
Koramangala,12.9351929,77.62448069999999,Baskins Robbins,12.938254135293356,77.62623212633954,Ice Cream Shop
Koramangala,12.9351929,77.62448069999999,Madurai Idli Shop,12.937327032870545,77.62439593638473,South Indian Restaurant
Koramangala,12.9351929,77.62448069999999,Vasudev Adiga's,12.934103931825202,77.62996518095774,Indian Restaurant
Koramangala,12.9351929,77.62448069999999,Cafe Coffee Day,12.93438002601041,77.62565032691057,Coffee Shop
Koramangala,12.9351929,77.62448069999999,Bhojohori Manna,12.937478970568803,77.62420886854935,Bengali Restaurant
Koramangala,12.9351929,77.62448069999999,Thalassery Restaurant,12.93706099792532,77.61977369414831,Kerala Restaurant
Koramangala,12.9351929,77.62448069999999,Bak Bak Bar,12.937858626004623,77.62797743918208,Lounge
Koramangala,12.9351929,77.62448069999999,Fitness First,12.937854088028592,77.6279355506993,Gym / Fitness Center
Koramangala,12.9351929,77.62448069999999,Shyam Thali,12.936908240143742,77.62008671785173,Indian Restaurant
Koramangala,12.9351929,77.62448069999999,The Smoke Co.,12.93769877742871,77.62430125872447,Gastropub
Koramangala,12.9351929,77.62448069999999,Domino's Pizza,12.940170446926473,77.62513326539266,Pizza Place
Koramangala,12.9351929,77.62448069999999,Smoked Out,12.934276026828355,77.6257525903187,BBQ Joint
Koramangala,12.9351929,77.62448069999999,Imperial Restaurant,12.936480876920148,77.62513701644708,Indian Restaurant
Koramangala,12.9351929,77.62448069999999,BonSouth,12.933680836553842,77.62234578225225,Indian Restaurant
Koramangala,12.9351929,77.62448069999999,Carrots,12.93889255041211,77.62581112339912,Vegetarian / Vegan Restaurant
Koramangala,12.9351929,77.62448069999999,Pizza Hut,12.939886421356348,77.62537558723905,Pizza Place
Koramangala,12.9351929,77.62448069999999,Shree Thali Vegetarian Mess,12.936396035829121,77.61988925832028,Indian Restaurant
Koramangala,12.9351929,77.62448069999999,Cafe 132,12.933548952528009,77.62214442481894,Café
Koramangala,12.9351929,77.62448069999999,cafe medley,12.933869823025992,77.6193650229155,Café
Koramangala,12.9351929,77.62448069999999,Barleyz - The Brew House,12.937644409043696,77.62702167074663,Beer Garden
Koramangala,12.9351929,77.62448069999999,Fill N Chill,12.935752834813854,77.62854841018967,Pub
Koramangala,12.9351929,77.62448069999999,Anand Purani Dilli,12.937227179453801,77.61955449156574,Indian Restaurant
Koramangala,12.9351929,77.62448069999999,chai point,12.938753473765624,77.62589927032616,Tea Room
Koramangala,12.9351929,77.62448069999999,Rendezvous,12.935069340065933,77.62911065136733,Italian Restaurant
Koramangala,12.9351929,77.62448069999999,Delicacy,12.935233519504164,77.63004939635861,Chinese Restaurant
Koramangala,12.9351929,77.62448069999999,Prost,12.93314719695822,77.63076614292017,Beer Garden
Koramangala,12.9351929,77.62448069999999,Madhuloka Liquor Boutique,12.937065961495154,77.61971254277661,Liquor Store
Koramangala,12.9351929,77.62448069999999,Naati Mane,12.934628529141165,77.61995262418685,Indian Restaurant
Koramangala,12.9351929,77.62448069999999,Vicky’s la terrazza,12.937015637615596,77.62005874526598,Italian Restaurant
Koramangala,12.9351929,77.62448069999999,Prost,12.93322279187096,77.63080223482912,Brewery
Koramangala,12.9351929,77.62448069999999,Cafe Coffee Day Lounge,12.93264235091151,77.62306067263394,Coffee Shop
Koramangala,12.9351929,77.62448069999999,Eat Street,12.9394308416994,77.62593665479568,Food Court
Koramangala,12.9351929,77.62448069999999,Tandoor Hut,12.93372589511646,77.6193918062634,Indian Restaurant
Koramangala,12.9351929,77.62448069999999,Habañero Koramangala,12.933882146374716,77.61947691390635,Mexican Restaurant
Koramangala,12.9351929,77.62448069999999,Cup O Joe,12.93388312459835,77.6189474650823,Café
Koramangala,12.9351929,77.62448069999999,Enigma - The Pub,12.934193313970827,77.62364843581581,Pub
Koramangala,12.9351929,77.62448069999999,1522- The Pub,12.934228738754092,77.63000865157993,Bar
Koramangala,12.9351929,77.62448069999999,Brooks And Bonds,12.934148240772732,77.62339561196282,Brewery
Koramangala,12.9351929,77.62448069999999,99 Varieties,12.938904188748866,77.61916921341388,Indian Restaurant
Koramangala,12.9351929,77.62448069999999,Sukh Sagar,12.933470601399277,77.62309936635852,Vegetarian / Vegan Restaurant
Koramangala,12.9351929,77.62448069999999,Food Street,12.939091777734193,77.61935942836304,Indian Restaurant
Koramangala,12.9351929,77.62448069999999,Barista Lavazza,12.933712733704025,77.62006735703564,Café
Koramangala,12.9351929,77.62448069999999,Daily Bread,12.931347671201502,77.62305397027329,American Restaurant
Koramangala,12.9351929,77.62448069999999,Hokey Pokey Icecream,12.933618773987817,77.62082581318481,Ice Cream Shop
Koramangala,12.9351929,77.62448069999999,Anjappar,12.932162461291599,77.62288892012221,Indian Restaurant
Koramangala,12.9351929,77.62448069999999,Mast Kalandar,12.934404161681128,77.62972230038426,Vegetarian / Vegan Restaurant
Koramangala,12.9351929,77.62448069999999,Bar code,12.932128275265343,77.62295890592536,Pub
Koramangala,12.9351929,77.62448069999999,Mr Beans The Coffee Lounge,12.929124087031168,77.62170726370013,Café
Koramangala,12.9351929,77.62448069999999,Shaap (Authentic Kerala Shaap Cuisine),12.933690211408482,77.6182964583504,Kerala Restaurant
Koramangala,12.9351929,77.62448069999999,Pizza Stop,12.931448753013768,77.62850520012036,Pizza Place
Koramangala,12.9351929,77.62448069999999,smart,12.935515877141277,77.63079411284346,Department Store
Madiwala,12.9226373,77.6174442,Sandhya Digital 4K,12.920966354083413,77.61818754995869,Indie Movie Theater
Madiwala,12.9226373,77.6174442,Fabindia,12.92493814274987,77.61913871753138,Furniture / Home Store
Madiwala,12.9226373,77.6174442,Chechi's Mess,12.926052682893918,77.61793948768472,Indian Restaurant
Madiwala,12.9226373,77.6174442,Savoury,12.926060143244218,77.61700713693132,Halal Restaurant
Madiwala,12.9226373,77.6174442,Sanjeevanam,12.925457924671166,77.619413942688,Indian Restaurant
Madiwala,12.9226373,77.6174442,Baskin-Robbins,12.925383732601617,77.61830205295567,Ice Cream Shop
Madiwala,12.9226373,77.6174442,Cafe Coffee Day,12.916658716756702,77.620248958712,Café
Madiwala,12.9226373,77.6174442,Seashell,12.926776261597501,77.6162114237389,Indian Restaurant
Madiwala,12.9226373,77.6174442,Domino's Pizza,12.919762611708501,77.6116163013481,Pizza Place
Madiwala,12.9226373,77.6174442,Cafe Coffee Day,12.916699101429206,77.62031609279266,Coffee Shop
Madiwala,12.9226373,77.6174442,KFC,12.921841406105857,77.6198069916814,Fast Food Restaurant
Madiwala,12.9226373,77.6174442,Malabar Mess,12.924764860637838,77.61465495997487,Indian Restaurant
Madiwala,12.9226373,77.6174442,Serengeti,12.92166422677929,77.62036469501815,Indian Restaurant
Madiwala,12.9226373,77.6174442,Domino's Pizza,12.9198065,77.61234,Pizza Place
Madiwala,12.9226373,77.6174442,Kairali Restuarant,12.926540389496617,77.61579315537918,Diner
Madiwala,12.9226373,77.6174442,Muthashi Family Restaurant,12.92075399321644,77.61326428119887,Indian Restaurant
Madiwala,12.9226373,77.6174442,Vasudev Adiga's,12.921515990941915,77.62011469043053,Indian Restaurant
Madiwala,12.9226373,77.6174442,Savoury,12.926799925400703,77.6163159506115,Fast Food Restaurant
Madiwala,12.9226373,77.6174442,Oottupura,12.926713406642742,77.61582231015042,Kerala Restaurant
Madiwala,12.9226373,77.6174442,Ambur Star Biryani,12.916593775732338,77.62032238658927,Indian Restaurant
Madiwala,12.9226373,77.6174442,Suite hotel Davanam Sarovar Portico,12.92182112362308,77.62019848227749,Hotel
Madiwala,12.9226373,77.6174442,Total Superstore,12.921850729387307,77.62029930927625,Department Store
Madiwala,12.9226373,77.6174442,Tangerine,12.921730018989724,77.62055397033691,Restaurant
Madiwala,12.9226373,77.6174442,King Regency,12.926778709766932,77.61572291044395,Hotel
Madiwala,12.9226373,77.6174442,Invitation Bar and Restaurant,12.927104933097796,77.61651992797852,Bar
Madiwala,12.9226373,77.6174442,Madiwala Park,12.927113999474768,77.62052308928935,Park
Madiwala,12.9226373,77.6174442,Gangothri Garden Restaurant,12.919573770136859,77.61259665439383,Indian Restaurant
Madiwala,12.9226373,77.6174442,AXA Tea Stop,12.916411947450076,77.61527533089118,Tea Room
Madiwala,12.9226373,77.6174442,Foodworld,12.927805835205342,77.62133988256143,Department Store
Banashankari,12.9254533,77.546757,Anna Kuteera,12.926093730901176,77.55036657260705,Indian Restaurant
Banashankari,12.9254533,77.546757,cafe coffee day,12.92489627789363,77.54587344768795,Café
Banashankari,12.9254533,77.546757,Domino's Pizza,12.931,77.543,Pizza Place
Banashankari,12.9254533,77.546757,Domino's Pizza,12.925,77.542,Pizza Place
Banashankari,12.9254533,77.546757,Pizza Hut,12.924959064094104,77.5507554121229,Pizza Place
Banashankari,12.9254533,77.546757,Taaza tindi,12.926046970127848,77.54857542055,Breakfast Spot
Banashankari,12.9254533,77.546757,Croma,12.924129203384094,77.55299827510812,Electronics Store
Banashankari,12.9254533,77.546757,Cafe coffee day,12.92601985435143,77.55030576213845,Café
Banashankari,12.9254533,77.546757,KFC,12.926221229774148,77.55058224695622,Fast Food Restaurant
Banashankari,12.9254533,77.546757,Big Bazaar,12.926529481743703,77.55080212278027,Miscellaneous Shop
Banashankari,12.9254533,77.546757,Reliance Trends,12.926890897848056,77.55106844906148,Clothing Store
Banashankari,12.9254533,77.546757,Spice Elephant,12.926069,77.55056,North Indian Restaurant
Banashankari,12.9254533,77.546757,INMARK,12.927182163921266,77.55127557242061,Clothing Store
Banashankari,12.9254533,77.546757,Ibaco,12.93039487159203,77.54697628574199,Ice Cream Shop
Banashankari,12.9254533,77.546757,Adyar Ananda Bhavan,12.929355886378815,77.55216165222299,Fast Food Restaurant
Banashankari,12.9254533,77.546757,Homemart,12.930618814331032,77.54715962451712,Department Store
Banashankari,12.9254533,77.546757,Hotel Prashanth,12.923641020190196,77.55327961134444,Restaurant
Basavanagudi,12.9405997,77.5737633,UD - Upahara Darshini,12.939425484210648,77.57138548760742,Indian Restaurant
Basavanagudi,12.9405997,77.5737633,South Thindies,12.938533002449914,77.57543728531792,Indian Restaurant
Basavanagudi,12.9405997,77.5737633,Rogue Elephant,12.941541392293871,77.57723352370775,Restaurant
Basavanagudi,12.9405997,77.5737633,By 2 Coffee,12.942161177597033,77.57058753917934,Indian Restaurant
Basavanagudi,12.9405997,77.5737633,South Kitchen,12.937889968186969,77.56871372271516,Breakfast Spot
Basavanagudi,12.9405997,77.5737633,Sri Guru Kottureshwara Davangere Benne Dose Hotel,12.938810170494127,77.5708674119335,Fast Food Restaurant
Basavanagudi,12.9405997,77.5737633,Vidyarthi Bhavan,12.945081590068911,77.57141473329507,Indian Restaurant
Basavanagudi,12.9405997,77.5737633,Harshi super sandwich,12.938899871400027,77.57061404688208,Sandwich Place
Basavanagudi,12.9405997,77.5737633,Puliyogere Point,12.940677264715706,77.57040942849967,Indian Restaurant
Basavanagudi,12.9405997,77.5737633,Mahalakshmi Tiffin Room,12.946963396829972,77.57152984973779,Indian Restaurant
Basavanagudi,12.9405997,77.5737633,Dwaraka Hotel,12.93782284520445,77.56774160202704,Indian Restaurant
Basavanagudi,12.9405997,77.5737633,Gandhi Bazaar,12.945310993584059,77.57133115880193,Farmers Market
Basavanagudi,12.9405997,77.5737633,Gokul,12.944348110053669,77.57107929652862,Asian Restaurant
Basavanagudi,12.9405997,77.5737633,Chai Point,12.938621010399673,77.57854709907132,Tea Room
Basavanagudi,12.9405997,77.5737633,Srinivasa Cool Corner,12.938406171592048,77.57014153341257,Fast Food Restaurant
Basavanagudi,12.9405997,77.5737633,Adyar Anand Bhavan,12.936672527626115,77.57800418548804,Indian Restaurant
Basavanagudi,12.9405997,77.5737633,Roti Ghar,12.944929395877233,77.57186671405238,Indian Restaurant
Basavanagudi,12.9405997,77.5737633,Soho Bar & Grill,12.944685555278602,77.57296676838308,Hookah Bar
Basavanagudi,12.9405997,77.5737633,Vaibhav Restaurant,12.93682616763877,77.5754390966951,Indian Restaurant
Basavanagudi,12.9405997,77.5737633,Netkallappa Circle,12.937044814121018,77.57154384206305,Plaza
Basavanagudi,12.9405997,77.5737633,Cafe Mondo,12.939682363892148,77.57759581928839,Café
Basavanagudi,12.9405997,77.5737633,Udupi Sri Krishna Bhavan,12.946095034787962,77.57052631690827,Indian Restaurant
Basavanagudi,12.9405997,77.5737633,Mysore Mylari Hotel,12.943658887919407,77.5714123142746,Indian Restaurant
Basavanagudi,12.9405997,77.5737633,Shiv Sagar,12.944307532099034,77.57273124448047,Indian Restaurant
Basavanagudi,12.9405997,77.5737633,Baisakhi,12.946152164857445,77.57022533506577,Indian Restaurant
Basavanagudi,12.9405997,77.5737633,Presto,12.937155771342617,77.57527707138578,Indian Restaurant
Basavanagudi,12.9405997,77.5737633,Thindi Katte,12.937157972239667,77.57539445936543,Indian Restaurant
Basavanagudi,12.9405997,77.5737633,Basavanagudi Union & Service Club,12.944567009293502,77.57360614196837,Athletics & Sports
Girinagar,12.9420948,77.5463577,Barista,12.943336934688098,77.55250151104914,Coffee Shop
Girinagar,12.9420948,77.5463577,Cafe Coffee Day,12.943156242129977,77.55242314093947,Café
Girinagar,12.9420948,77.5463577,Lemon Tea Adda,12.943639002777354,77.54352778190015,Smoke Shop
Girinagar,12.9420948,77.5463577,sri vasavi chats,12.941898345947266,77.54963684082031,Indian Restaurant
Girinagar,12.9420948,77.5463577,Avalahalli BDA park,12.942815111074806,77.54244730379878,Park
Girinagar,12.9420948,77.5463577,Aahar Utsav veg,12.937411322810728,77.54937786048372,Hotel
Girinagar,12.9420948,77.5463577,Aithal's Mithra Koota,12.94333,77.54065,Breakfast Spot
Girinagar,12.9420948,77.5463577,New Sagar Fast Food,12.939021068792043,77.55154967039009,Vegetarian / Vegan Restaurant
J. P. Nagar,12.9063433,77.5856825,S N Refreshments,12.9083716531078,77.58722416064232,Snack Place
J. P. Nagar,12.9063433,77.5856825,Subway,12.904060894268778,77.58568840262973,Sandwich Place
J. P. Nagar,12.9063433,77.5856825,Brewsky,12.906520949015652,77.58960361689267,Brewery
J. P. Nagar,12.9063433,77.5856825,Rangashankara,12.911471798108657,77.58699744484541,Performing Arts Venue
J. P. Nagar,12.9063433,77.5856825,Fujian on 24th,12.903671218217521,77.58586546078527,Chinese Restaurant
J. P. Nagar,12.9063433,77.5856825,The Egg Factory,12.906303157262725,77.59039115402068,Breakfast Spot
J. P. Nagar,12.9063433,77.5856825,The Pump House,12.906654113952998,77.58218444836054,Brewery
J. P. Nagar,12.9063433,77.5856825,Paradise,12.910401106721118,77.585888749444,Hyderabadi Restaurant
J. P. Nagar,12.9063433,77.5856825,Take A Break,12.90627801313265,77.58886333832453,Bakery
J. P. Nagar,12.9063433,77.5856825,Cafe Pascucci,12.906439457874848,77.5918362242764,Café
J. P. Nagar,12.9063433,77.5856825,Namma Kudla,12.912731731006103,77.5861278000468,Seafood Restaurant
J. P. Nagar,12.9063433,77.5856825,McDonald's,12.906195432655993,77.58557459049263,Fast Food Restaurant
J. P. Nagar,12.9063433,77.5856825,Chulha Chauki da Dhabha,12.91226379859375,77.5860554314123,Indian Restaurant
J. P. Nagar,12.9063433,77.5856825,24th Main,12.908630019592398,77.5857480645687,Indian Restaurant
J. P. Nagar,12.9063433,77.5856825,"We Fitness, Health And Wellness Center",12.90044276366464,77.5860666989362,Gym / Fitness Center
J. P. Nagar,12.9063433,77.5856825,Watsons,12.906357158834668,77.59253817843954,Bar
J. P. Nagar,12.9063433,77.5856825,Bee Vee Bakery,12.902532545351294,77.58500839972486,Bakery
J. P. Nagar,12.9063433,77.5856825,Sree Krishna Sagar,12.900036334886964,77.58588198912229,South Indian Restaurant
J. P. Nagar,12.9063433,77.5856825,Fujian,12.90370715996,77.58578625279456,Chinese Restaurant
J. P. Nagar,12.9063433,77.5856825,Zaitoon,12.903095439850073,77.58579143810182,Middle Eastern Restaurant
J. P. Nagar,12.9063433,77.5856825,KFC,12.911337784891616,77.58575353644773,Fast Food Restaurant
J. P. Nagar,12.9063433,77.5856825,Bhojohori Manna,12.912104553269552,77.58625148913103,Bengali Restaurant
J. P. Nagar,12.9063433,77.5856825,Polar Bear,12.901947696321821,77.58586221135745,Ice Cream Shop
J. P. Nagar,12.9063433,77.5856825,Adithya Pure Veg Restaurant,12.911837133718336,77.58682119860238,Vegetarian / Vegan Restaurant
J. P. Nagar,12.9063433,77.5856825,Cafe Coffee Day,12.906195,77.59189,Coffee Shop
J. P. Nagar,12.9063433,77.5856825,Baskin-Robbins,12.90076691828163,77.58589590414736,Ice Cream Shop
J. P. Nagar,12.9063433,77.5856825,3654 Chinese Hut,12.911939759797354,77.58616070306971,Chinese Restaurant
J. P. Nagar,12.9063433,77.5856825,Cafe Coffee Day,12.912362,77.5857,Coffee Shop
J. P. Nagar,12.9063433,77.5856825,Cafe Coffee Day,12.911294,77.589759,Café
J. P. Nagar,12.9063433,77.5856825,Chung Wah OPUS,12.906572714496509,77.58442487775667,Chinese Restaurant
J. P. Nagar,12.9063433,77.5856825,Delhi Zaika,12.91211635995625,77.58589344185233,Diner
J. P. Nagar,12.9063433,77.5856825,Dilli Chat Walla,12.906327432851109,77.58819602007426,Fast Food Restaurant
J. P. Nagar,12.9063433,77.5856825,Nandhini Paradise,12.90552449999905,77.58564495605476,Indian Restaurant
J. P. Nagar,12.9063433,77.5856825,Kakori Grill House,12.901744807554207,77.58583405977242,Indian Restaurant
J. P. Nagar,12.9063433,77.5856825,Cross Roads Inn Bangalore,12.908481404357046,77.5859829812204,Hotel
J. P. Nagar,12.9063433,77.5856825,Inchara,12.90260178872124,77.5838214250641,Indian Restaurant
J. P. Nagar,12.9063433,77.5856825,Reliance Digital,12.91048465740822,77.58610543933177,Electronics Store
J. P. Nagar,12.9063433,77.5856825,Rajwada,12.910514029009233,77.58593261533458,Fast Food Restaurant
J. P. Nagar,12.9063433,77.5856825,Ammi's Biryani,12.902133871558794,77.58451676513921,Indian Restaurant
J. P. Nagar,12.9063433,77.5856825,Grills N Rolls,12.900485351725736,77.58583685789537,Indian Restaurant
J. P. Nagar,12.9063433,77.5856825,Vinaya Cafe,12.904565813699513,77.5799668972354,Snack Place
J. P. Nagar,12.9063433,77.5856825,Spencers,12.910501960215315,77.58141078658521,Department Store
J. P. Nagar,12.9063433,77.5856825,Wang's,12.906289,77.59254,Chinese Restaurant
J. P. Nagar,12.9063433,77.5856825,Shell,12.90678015,77.5792605,Gas Station
J. P. Nagar,12.9063433,77.5856825,The French Loaf,12.91061600932806,77.58048177462216,Bakery
Jayanagar,12.9307735,77.5838302,Hari Super Sandwich,12.932947240497668,77.5825363305544,Sandwich Place
Jayanagar,12.9307735,77.5838302,Lassi Park,12.932975110649434,77.58243058939671,Juice Bar
Jayanagar,12.9307735,77.5838302,Sapna Book House,12.93072912003569,77.58155446883902,Bookstore
Jayanagar,12.9307735,77.5838302,Golds Gym,12.932006072983302,77.58315334669344,Gym
Jayanagar,12.9307735,77.5838302,Cool Joint,12.928587078677822,77.58600576221922,Sandwich Place
Jayanagar,12.9307735,77.5838302,Kuch Bhi,12.932769240811957,77.58355531997839,Indian Restaurant
Jayanagar,12.9307735,77.5838302,Hatti Kaapi,12.928539378635731,77.58175146901735,Coffee Shop
Jayanagar,12.9307735,77.5838302,Kedias fun food,12.928878775709073,77.58167421142119,Indian Restaurant
Jayanagar,12.9307735,77.5838302,"Subz,Cosmopolitan Club",12.93291219046311,77.58489731159852,Restaurant
Jayanagar,12.9307735,77.5838302,Maiya's,12.928602969980986,77.58182126835202,Indian Restaurant
Jayanagar,12.9307735,77.5838302,Sreeraj Lassi Bar,12.931345507094006,77.58350508292891,Juice Bar
Jayanagar,12.9307735,77.5838302,Au Bon Pain,12.933912184564619,77.58403563120292,Café
Jayanagar,12.9307735,77.5838302,Tanishq Jayanagar,12.932665167594607,77.58611808894229,Jewelry Store
Jayanagar,12.9307735,77.5838302,Cosmo Club,12.933188804989294,77.58557445727713,Lounge
Jayanagar,12.9307735,77.5838302,Pizza Hut,12.930832216670389,77.58319165978475,Pizza Place
Jayanagar,12.9307735,77.5838302,Cane O La,12.928859733095232,77.58600936332793,Juice Bar
Jayanagar,12.9307735,77.5838302,Ganesh Darshan Restaurant,12.931056798538824,77.58389284982813,Indian Restaurant
Jayanagar,12.9307735,77.5838302,Three Quarter Chinese,12.933028587908323,77.5852148381685,Chinese Restaurant
Jayanagar,12.9307735,77.5838302,Subz,12.932917771567514,77.58510547851132,Indian Restaurant
Jayanagar,12.9307735,77.5838302,Krazzy Folds,12.927194755270996,77.58610037137068,Mexican Restaurant
Jayanagar,12.9307735,77.5838302,Café Toscano,12.937023965911811,77.5850801295083,Bistro
Jayanagar,12.9307735,77.5838302,1947,12.92764238042907,77.5862157482534,Indian Restaurant
Jayanagar,12.9307735,77.5838302,Fab India,12.937257866283808,77.58524543144964,Boutique
Jayanagar,12.9307735,77.5838302,Vasudev Adigas,12.930710544995497,77.58635878746956,Indian Restaurant
Jayanagar,12.9307735,77.5838302,Cakewala @ Jayanagar 4th Block,12.928969852923863,77.58602759341773,Bakery
Jayanagar,12.9307735,77.5838302,Nagarjuna,12.932892192361368,77.5840872366718,Andhra Restaurant
Jayanagar,12.9307735,77.5838302,Once Upon a Rooftop,12.92543119416865,77.58366098334108,Restaurant
Jayanagar,12.9307735,77.5838302,Flamenco,12.929357995152454,77.58161522085767,Café
Jayanagar,12.9307735,77.5838302,Rooftop Cafe,12.92900313506335,77.58601475308517,Café
Jayanagar,12.9307735,77.5838302,Sichaun Court,12.92725563730102,77.58623108149611,Chinese Restaurant
Jayanagar,12.9307735,77.5838302,Sukh Sagar,12.928651966709431,77.58276518430387,Indian Restaurant
Jayanagar,12.9307735,77.5838302,Hotel Nandhini,12.930591863331102,77.58139586927206,Hotel
Jayanagar,12.9307735,77.5838302,Java City,12.934986706734506,77.58273460799764,Coffee Shop
Jayanagar,12.9307735,77.5838302,Polar Bear,12.92757510101327,77.57808260788559,Ice Cream Shop
Jayanagar,12.9307735,77.5838302,Meghana Foods,12.926236959366587,77.58458376327353,Indian Restaurant
Jayanagar,12.9307735,77.5838302,Caffe Pascucci,12.92724075344209,77.58623727743417,Café
Jayanagar,12.9307735,77.5838302,Roll Over,12.930757,77.58125,Dessert Shop
Jayanagar,12.9307735,77.5838302,Anand Sweets,12.930690333029228,77.58098577651023,Indian Restaurant
Jayanagar,12.9307735,77.5838302,Punjabi Raswada,12.932222760165718,77.58617226455291,Indian Restaurant
Jayanagar,12.9307735,77.5838302,Starbucks,12.924623871845903,77.5838051373744,Coffee Shop
Jayanagar,12.9307735,77.5838302,Canton Restaurant & Bar,12.932423420150648,77.58386669926558,Chinese Restaurant
Jayanagar,12.9307735,77.5838302,Sri Venkateshwara Sweet-Meat Stall,12.924863492557895,77.5837522039717,Fast Food Restaurant
Jayanagar,12.9307735,77.5838302,Jayanagar 4th Block Complex,12.929481965020363,77.58443282089485,Shopping Plaza
Jayanagar,12.9307735,77.5838302,Parivar Bar & Restaurant,12.92689268778721,77.58620430200305,Bar
Jayanagar,12.9307735,77.5838302,Baskin-Robbins,12.925603506503991,77.58599252767569,Ice Cream Shop
Jayanagar,12.9307735,77.5838302,Kalmane Koffee,12.929708702746252,77.58497446003176,Café
Jayanagar,12.9307735,77.5838302,La Marvella,12.936733762364138,77.58058719520027,Hotel
Jayanagar,12.9307735,77.5838302,Gufha,12.93330594366965,77.58334021458388,Indian Restaurant
Jayanagar,12.9307735,77.5838302,Burger King,12.928014573541478,77.58624040649727,Fast Food Restaurant
Jayanagar,12.9307735,77.5838302,Pai Viceroy,12.936097509956449,77.58393002250345,Hotel
Jayanagar,12.9307735,77.5838302,Max,12.931563036310646,77.5860292658942,Women's Store
Jayanagar,12.9307735,77.5838302,GRT Jewellery,12.926254766614196,77.58588430135373,Jewelry Store
Jayanagar,12.9307735,77.5838302,Madhavan Park,12.935887639381715,77.58510996935603,Park
Jayanagar,12.9307735,77.5838302,"Barista, Jayanagr",12.927439554274295,77.58362531661987,Café
Jayanagar,12.9307735,77.5838302,Krispy Kreme,12.926934197854509,77.58623281364709,Donut Shop
Jayanagar,12.9307735,77.5838302,Hot Chips,12.928670169881807,77.58534874248336,Indian Restaurant
Jayanagar,12.9307735,77.5838302,Cafe Coffee Day Lounge,12.927606864694344,77.58652210235596,Café
Jayanagar,12.9307735,77.5838302,Adigas,12.930707247393416,77.58639616714648,Indian Restaurant
Jayanagar,12.9307735,77.5838302,Level 5,12.934179,77.582948,Lounge
Jayanagar,12.9307735,77.5838302,Uphara Darshini,12.93288585884969,77.58449677838107,Indian Restaurant
Jayanagar,12.9307735,77.5838302,La Casa,12.926091207050057,77.58485848212288,Gastropub
Jayanagar,12.9307735,77.5838302,Ibaco,12.926241413221982,77.5871766716795,Ice Cream Shop
Jayanagar,12.9307735,77.5838302,Kanti Sweets,12.931030773686322,77.58606847879499,Candy Store
Jayanagar,12.9307735,77.5838302,Chungs,12.932899371884742,77.58474641964841,Chinese Restaurant
Jayanagar,12.9307735,77.5838302,Cafe Coffee Day,12.927348757583038,77.57807906803023,Coffee Shop
Jayanagar,12.9307735,77.5838302,Grill Square,12.926264211516623,77.58427955434296,BBQ Joint
Jayanagar,12.9307735,77.5838302,Amoeba,12.933150752002978,77.58518482824731,Bowling Alley
Jayanagar,12.9307735,77.5838302,Chung Wah OPUS,12.935001499424883,77.58277530900763,Chinese Restaurant
Jayanagar,12.9307735,77.5838302,Empire Jayanagar,12.932936432553435,77.58149723455745,Indian Restaurant
Jayanagar,12.9307735,77.5838302,Ferghana,12.934286837880078,77.5830492186804,Asian Restaurant
Jayanagar,12.9307735,77.5838302,Cafe Coffee Day,12.926250934755545,77.58388914370578,Café
Jayanagar,12.9307735,77.5838302,Central Jail Hotel,12.929935,77.58496,Asian Restaurant
Jayanagar,12.9307735,77.5838302,KFC,12.926830065951558,77.58625817584782,Fast Food Restaurant
Jayanagar,12.9307735,77.5838302,Brewmeister,12.926405272791483,77.58467628044113,Brewery
Jayanagar,12.9307735,77.5838302,Golmaal Paratha,12.929969955977375,77.58566052899596,Indian Restaurant
Jayanagar,12.9307735,77.5838302,Puma Store,12.929557760165238,77.58603894328941,Sporting Goods Shop
Jayanagar,12.9307735,77.5838302,Reliance Fresh,12.932887382417197,77.58528949693749,Department Store
Jayanagar,12.9307735,77.5838302,Upahara Darshini,12.93338400954632,77.58457832421213,Indian Restaurant
Jayanagar,12.9307735,77.5838302,Mast Kalandar,12.932526653924139,77.5861508673443,Indian Restaurant
Jayanagar,12.9307735,77.5838302,Stegi,12.933764,77.583475,Indian Restaurant
Jayanagar,12.9307735,77.5838302,The High Street,12.927382518661213,77.58621348965147,Shopping Mall
Jayanagar,12.9307735,77.5838302,Kittur Rani Chennamma Stadium,12.933919229180269,77.58619563693522,Stadium
Jayanagar,12.9307735,77.5838302,Jayanagar Swimming Pool,12.933169872296874,77.58720874786377,Gym Pool
Jayanagar,12.9307735,77.5838302,Daily Bread,12.9351762092902,77.58405982785669,Café
Jayanagar,12.9307735,77.5838302,Shanghai Chowk,12.92466438246172,77.58590040600356,Chinese Restaurant
Jayanagar,12.9307735,77.5838302,Jos Alukkas,12.9351985275224,77.58400190612574,Jewelry Store
Jayanagar,12.9307735,77.5838302,byrasandra park,12.933661233047063,77.58886499173822,Park
Jayanagar,12.9307735,77.5838302,brews n bites,12.928514823519608,77.59016411004356,Café
Jayanagar,12.9307735,77.5838302,Jayanagar Sports Club,12.937258269873738,77.58569923236747,Basketball Court
Jayanagar,12.9307735,77.5838302,Rajathadri Food Fort,12.927925313352993,77.57810379326521,Indian Restaurant
Kumaraswamy Layout,12.9044382,77.56492779999999,Tree Shade,12.90687039145804,77.56334272781385,Burger Joint
Kumaraswamy Layout,12.9044382,77.56492779999999,Slv refreshment,12.905312892826212,77.56277312464276,Breakfast Spot
Kumaraswamy Layout,12.9044382,77.56492779999999,Polar Bear,12.908911705653743,77.56256005172379,Ice Cream Shop
Kumaraswamy Layout,12.9044382,77.56492779999999,Cafe Coffee Day,12.908553616213238,77.56617066882794,Café
Kumaraswamy Layout,12.9044382,77.56492779999999,Cantonment Bread Omlette Wagon,12.90570484769151,77.56525272624198,Food Truck
Kumaraswamy Layout,12.9044382,77.56492779999999,hari super sandwich,12.907077316693844,77.56385900651286,Sandwich Place
Kumaraswamy Layout,12.9044382,77.56492779999999,Roll N Rock,12.90775860626229,77.56394296601792,Fast Food Restaurant
Kumaraswamy Layout,12.9044382,77.56492779999999,Njac,12.907779799559522,77.56321907043457,Café
Kumaraswamy Layout,12.9044382,77.56492779999999,Moksha,12.903011030243192,77.56021499633789,Chinese Restaurant
Kumaraswamy Layout,12.9044382,77.56492779999999,Eat & Drink,12.909602653478657,77.56483826362948,Indian Restaurant
Kumaraswamy Layout,12.9044382,77.56492779999999,Stop N Joy,12.906862278935467,77.55948183150616,Sandwich Place
Kumaraswamy Layout,12.9044382,77.56492779999999,Ice cafe,12.899233936285148,77.56175999867094,Café
Kumaraswamy Layout,12.9044382,77.56492779999999,Star Bazzar,12.899702480017405,77.56068379894327,Market
Kumaraswamy Layout,12.9044382,77.56492779999999,Sri Manjunatha Bakery and Sweets,12.899487798195402,77.56073007127401,Bakery
Padmanabhanagar,12.9155691,77.5567733,Kanti Sweets,12.911081427702225,77.55168981800485,Bakery
Padmanabhanagar,12.9155691,77.5567733,Maiya's Express,12.91819673239357,77.55612526156226,Snack Place
Padmanabhanagar,12.9155691,77.5567733,Bda Park,12.914899097438491,77.55718682567047,Park
Padmanabhanagar,12.9155691,77.5567733,Green Gardenia,12.917452922960775,77.55953220916201,Indian Restaurant
Padmanabhanagar,12.9155691,77.5567733,Shoprite Super Market,12.920235195715327,77.5600096555235,Convenience Store
Padmanabhanagar,12.9155691,77.5567733,Coffee hut,12.92025962643692,77.55561947792246,Coffee Shop
Padmanabhanagar,12.9155691,77.5567733,Sapphire Toys,12.921399340110632,77.55334118739896,Toy / Game Store
Uttarahalli,12.9069823,77.552059,Kanti Sweets,12.911081427702225,77.55168981800485,Bakery
Uttarahalli,12.9069823,77.552059,Domino's Pizza,12.91090105570454,77.55144764757166,Pizza Place
Uttarahalli,12.9069823,77.552059,Cafe Coffee Day,12.906877321694868,77.54568765755995,Café
Uttarahalli,12.9069823,77.552059,Masala,12.910110301321483,77.5507309731067,Indian Restaurant
Uttarahalli,12.9069823,77.552059,Television Cultural and Sports Club,12.90443498304745,77.55200889803206,Sports Bar
Uttarahalli,12.9069823,77.552059,More 4 U,12.908711098118479,77.54975852500898,Department Store
Uttarahalli,12.9069823,77.552059,kona kafe,12.906967227272393,77.54882365543695,Paintball Field
Uttarahalli,12.9069823,77.552059,Kaggis Bake Shop,12.909197563109,77.54932427943118,Bakery
Uttarahalli,12.9069823,77.552059,Vishal Mega Mart,12.907890434808744,77.5486165276037,Department Store
Uttarahalli,12.9069823,77.552059,fitness cube,12.910351753234863,77.551025390625,Gym
Uttarahalli,12.9069823,77.552059,Janatha Hotel,12.910298954490681,77.55082871120368,Indian Restaurant
Uttarahalli,12.9069823,77.552059,Goli Vadapav,12.908603599736473,77.5487508808359,Fast Food Restaurant
Uttarahalli,12.9069823,77.552059,Shanti Sagar,12.908890290181773,77.5488037865357,Indian Restaurant
Uttarahalli,12.9069823,77.552059,new biriyani mane,12.910917587342801,77.55115241803642,Indian Restaurant
Uttarahalli,12.9069823,77.552059,Royal Mart,12.910966012348096,77.54924910601716,Department Store
